Stop with no routes: Stop{stopId='SNCB-8863842_1', name='Houyet', latitude=50.18987, longitude=5.006076, routes=[]}
Stop with no routes: Stop{stopId='SNCB-8863842_3', name='Houyet', latitude=50.18987, longitude=5.006076, routes=[]}
Stop with no routes: Stop{stopId='SNCB-8864337_1', name='Grupont', latitude=50.0906, longitude=5.280527, routes=[]}
Stop with no routes: Stop{stopId='SNCB-8864337_2', name='Grupont', latitude=50.0906, longitude=5.280527, routes=[]}
Stop with no routes: Stop{stopId='STIB-0470238', name='2 - Rue de l'Armistice', latitude=50.863625, longitude=4.331196, routes=[]}
Stop with no routes: Stop{stopId='DELIJN-203186', name='Ertvelde Trilkouter', latitude=51.17686, longitude=3.752094, routes=[]}
Stop with no routes: Stop{stopId='DELIJN-408481', name='Lutlommel Vennenstraat', latitude=51.236292, longitude=5.360653, routes=[]}
Stop with no routes: Stop{stopId='DELIJN-408482', name='Overpelt Kraaibosstraat', latitude=51.176203, longitude=5.419908, routes=[]}
Stop with no routes: Stop{stopId='DELIJN-408475', name='Neerpelt Teutenlaan', latitude=51.230682, longitude=5.431114, routes=[]}
Stop with no routes: Stop{stopId='DELIJN-408490', name='Zepperen Stippelstraat', latitude=50.847432, longitude=5.252863, routes=[]}
Stop with no routes: Stop{stopId='DELIJN-408487', name='Balen Weidestraat', latitude=51.189638, longitude=5.239926, routes=[]}
Stop with no routes: Stop{stopId='DELIJN-408582', name='Lauw Donkelstraat', latitude=50.74218, longitude=5.418088, routes=[]}
Stop with no routes: Stop{stopId='DELIJN-408592', name='Lauw Kraaibornstraat', latitude=50.737816, longitude=5.419378, routes=[]}
Stop with no routes: Stop{stopId='DELIJN-408593', name='Lauw Kraaibornstraat nr 69', latitude=50.74015, longitude=5.421292, routes=[]}
Stop with no routes: Stop{stopId='DELIJN-301561', name='Glabbeek-Zuurbemde Rode', latitude=50.88084, longitude=4.942105, routes=[]}
Stop with no routes: Stop{stopId='DELIJN-408559', name='Tongeren Kerkhof', latitude=50.786175, longitude=5.462274, routes=[]}
Stop with no routes: Stop{stopId='DELIJN-408556', name='Leopoldsburg Sociaal Huis', latitude=51.120461, longitude=5.260374, routes=[]}
Stop with no routes: Stop{stopId='DELIJN-301557', name='Glabbeek-Zuurbemde Kapelleke', latitude=50.874409, longitude=4.942164, routes=[]}
Stop with no routes: Stop{stopId='DELIJN-408531', name='Henis Dorpstraat', latitude=50.798788, longitude=5.465705, routes=[]}
Stop with no routes: Stop{stopId='SNCB-8893039_1', name='Melle', latitude=51.00281, longitude=3.79709, routes=[]}
Stop with no routes: Stop{stopId='SNCB-8893039_2', name='Melle', latitude=51.00281, longitude=3.79709, routes=[]}
Stop with no routes: Stop{stopId='DELIJN-408519', name='Tongeren De Jeker', latitude=50.773246, longitude=5.481373, routes=[]}
Stop with no routes: Stop{stopId='STIB-0470138', name='1 - Boulevard Léopold II', latitude=50.863445, longitude=4.330997, routes=[]}
Stop with no routes: Stop{stopId='DELIJN-203275', name='Evergem Doornzele Voetbalplein', latitude=51.137593, longitude=3.760844, routes=[]}
Stop with no routes: Stop{stopId='DELIJN-457379', name='Grote-Brogel Kiosk', latitude=51.156905, longitude=5.50339, routes=[]}
Stop with no routes: Stop{stopId='SNCB-8811916_1', name='Bruxelles-Schuman', latitude=50.84328, longitude=4.380725, routes=[]}
Stop with no routes: Stop{stopId='SNCB-8811916_2', name='Bruxelles-Schuman', latitude=50.84328, longitude=4.380725, routes=[]}
Stop with no routes: Stop{stopId='SNCB-8811916_3', name='Bruxelles-Schuman', latitude=50.84328, longitude=4.380725, routes=[]}
Stop with no routes: Stop{stopId='DELIJN-408398', name='Tessenderlo Zavelberg', latitude=51.053938, longitude=5.04866, routes=[]}
Stop with no routes: Stop{stopId='SNCB-8811916_4', name='Bruxelles-Schuman', latitude=50.84328, longitude=4.380725, routes=[]}
Stop with no routes: Stop{stopId='DELIJN-203245', name='Eeklo Station perron 7', latitude=51.181237, longitude=3.574454, routes=[]}
Stop with no routes: Stop{stopId='DELIJN-408380', name='Tessenderlo Vroentestraat', latitude=51.076923, longitude=5.084301, routes=[]}
Stop with no routes: Stop{stopId='SNCB-8811270_3', name='Veltem', latitude=50.90052, longitude=4.63352, routes=[]}
Stop with no routes: Stop{stopId='SNCB-8811270_4', name='Veltem', latitude=50.90052, longitude=4.63352, routes=[]}
Stop with no routes: Stop{stopId='DELIJN-408387', name='Tessenderlo Weg naar Industriepark', latitude=51.074671, longitude=5.152478, routes=[]}
Stop with no routes: Stop{stopId='SNCB-8811270_1', name='Veltem', latitude=50.90052, longitude=4.63352, routes=[]}
Stop with no routes: Stop{stopId='DELIJN-408363', name='Balen Vinkenstraat', latitude=51.145924, longitude=5.216274, routes=[]}
Stop with no routes: Stop{stopId='DELIJN-203297', name='Evergem Stationsplein', latitude=51.107232, longitude=3.701585, routes=[]}
Stop with no routes: Stop{stopId='DELIJN-408354', name='Tessenderlo Sint-Barbarakerk', latitude=51.05512, longitude=5.087569, routes=[]}
Stop with no routes: Stop{stopId='DELIJN-408356', name='Herk-de-Stad Wendelenplein', latitude=50.94039, longitude=5.16689, routes=[]}
Stop with no routes: Stop{stopId='DELIJN-506829', name='Koksijde Sint-Idesbald', latitude=51.111169, longitude=2.612301, routes=[]}
Stop with no routes: Stop{stopId='DELIJN-408371', name='Lommel Averbodestraat', latitude=51.219574, longitude=5.327126, routes=[]}
Stop with no routes: Stop{stopId='DELIJN-506830', name='Koksijde Sint-Idesbald', latitude=51.110977, longitude=2.612796, routes=[]}
Stop with no routes: Stop{stopId='DELIJN-408369', name='Lanaken Smeetsstraat', latitude=50.892441, longitude=5.623018, routes=[]}
Stop with no routes: Stop{stopId='SNCB-S8874567', name='Farciennes', latitude=50.42915, longitude=4.55265, routes=[]}
Stop with no routes: Stop{stopId='SNCB-S8874559', name='Le Campinaire', latitude=50.42383, longitude=4.542787, routes=[]}
Stop with no routes: Stop{stopId='SNCB-8842036_1', name='Chênée', latitude=50.60802, longitude=5.616075, routes=[]}
Stop with no routes: Stop{stopId='SNCB-8842036_2', name='Chênée', latitude=50.60802, longitude=5.616075, routes=[]}
Stop with no routes: Stop{stopId='SNCB-S8874583', name='Aiseau', latitude=50.42953, longitude=4.58455, routes=[]}
Stop with no routes: Stop{stopId='DELIJN-335030', name='Merchtem Station', latitude=50.953937, longitude=4.223966, routes=[]}
Stop with no routes: Stop{stopId='DELIJN-335031', name='Molenbeek-Wersbeek Netelzeepstraat', latitude=50.912762, longitude=4.958517, routes=[]}
Stop with no routes: Stop{stopId='DELIJN-335032', name='Opvelp Culot', latitude=50.808654, longitude=4.785208, routes=[]}
Stop with no routes: Stop{stopId='DELIJN-335033', name='Opwijk Broekstraat', latitude=50.968353, longitude=4.19529, routes=[]}
Stop with no routes: Stop{stopId='DELIJN-335034', name='Opwijk Kerk', latitude=50.969885, longitude=4.189327, routes=[]}
Stop with no routes: Stop{stopId='DELIJN-109764', name='Rijmenam Weyneshof', latitude=51.030961, longitude=4.606641, routes=[]}
Stop with no routes: Stop{stopId='DELIJN-335037', name='Rillaar Beurtstraat', latitude=50.960299, longitude=4.933577, routes=[]}
Stop with no routes: Stop{stopId='DELIJN-335039', name='Tienen Multigas', latitude=50.808805, longitude=4.965118, routes=[]}
Stop with no routes: Stop{stopId='DELIJN-335040', name='Zichem Leigrachtstraat', latitude=50.987039, longitude=5.011385, routes=[]}
Stop with no routes: Stop{stopId='DELIJN-335041', name='Zoutleeuw Caf? De Hoofdzonde', latitude=50.849859, longitude=5.138339, routes=[]}
Stop with no routes: Stop{stopId='DELIJN-335044', name='Zoutleeuw Muggeberg', latitude=50.846735, longitude=5.131657, routes=[]}
Stop with no routes: Stop{stopId='DELIJN-109751', name='Ruisbroek Ooievaarsnest', latitude=51.074041, longitude=4.340563, routes=[]}
Stop with no routes: Stop{stopId='DELIJN-335010', name='Bierbeek Ruisbroek', latitude=50.835746, longitude=4.759762, routes=[]}
Stop with no routes: Stop{stopId='DELIJN-335011', name='Boortmeerbeek Boortse', latitude=50.973716, longitude=4.578832, routes=[]}
Stop with no routes: Stop{stopId='DELIJN-335012', name='Boortmeerbeek Maenrot', latitude=50.97041, longitude=4.559307, routes=[]}
Stop with no routes: Stop{stopId='DELIJN-335013', name='Diest Kluisbergstraat', latitude=50.986163, longitude=5.043746, routes=[]}
Stop with no routes: Stop{stopId='DELIJN-335016', name='Hever Schiplaken Stijn Streuvelslaan', latitude=50.983358, longitude=4.524171, routes=[]}
Stop with no routes: Stop{stopId='DELIJN-335017', name='Hever Schiplaken Lievekensbossen', latitude=50.976153, longitude=4.543436, routes=[]}
Stop with no routes: Stop{stopId='DELIJN-335024', name='Korbeek-Lo Panoramalaan', latitude=50.870895, longitude=4.76222, routes=[]}
Stop with no routes: Stop{stopId='DELIJN-109728', name='Geel Bruulstraat', latitude=51.164241, longitude=5.045628, routes=[]}
Stop with no routes: Stop{stopId='DELIJN-408458', name='Koersel Feestzaal', latitude=51.061454, longitude=5.27635, routes=[]}
Stop with no routes: Stop{stopId='DELIJN-408473', name='Bocholt Kapelstraat', latitude=51.176322, longitude=5.579736, routes=[]}
Stop with no routes: Stop{stopId='SNCB-8892304_2', name='Furnes', latitude=51.07387, longitude=2.66994, routes=[]}
Stop with no routes: Stop{stopId='SNCB-8892304_1', name='Furnes', latitude=51.07387, longitude=2.66994, routes=[]}
Stop with no routes: Stop{stopId='DELIJN-408440', name='Gelinden Kleinveldstraat', latitude=50.757818, longitude=5.259946, routes=[]}
Stop with no routes: Stop{stopId='DELIJN-408439', name='Gelinden Beemdenstraat', latitude=50.76031, longitude=5.260879, routes=[]}
Stop with no routes: Stop{stopId='DELIJN-109700', name='Boom RMS 1', latitude=51.091578, longitude=4.371525, routes=[]}
Stop with no routes: Stop{stopId='STIB-0230634', name='BD INVALIDES/R TROIS PONTS', latitude=50.818363, longitude=4.404342, routes=[]}
Stop with no routes: Stop{stopId='DELIJN-408446', name='Montenaken Hoofdingang Rusthuis', latitude=50.719862, longitude=5.129446, routes=[]}
Stop with no routes: Stop{stopId='DELIJN-408447', name='Montenaken Dagcentrum Rusthuis', latitude=50.719626, longitude=5.128592, routes=[]}
Stop with no routes: Stop{stopId='DELIJN-408448', name='Herderen Sieberg', latitude=50.812255, longitude=5.569273, routes=[]}
Stop with no routes: Stop{stopId='DELIJN-408443', name='Gelinden Schepenbank', latitude=50.770331, longitude=5.268202, routes=[]}
Stop with no routes: Stop{stopId='SNCB-8863354_1', name='Jambes-Est', latitude=50.4548, longitude=4.88026, routes=[]}
Stop with no routes: Stop{stopId='DELIJN-408444', name='Neerlanden Sint-Truidenstraat', latitude=50.779189, longitude=5.081552, routes=[]}
Stop with no routes: Stop{stopId='SNCB-8863354_2', name='Jambes-Est', latitude=50.4548, longitude=4.88026, routes=[]}
Stop with no routes: Stop{stopId='DELIJN-408418', name='Bree Sportlaan', latitude=51.146832, longitude=5.595602, routes=[]}
Stop with no routes: Stop{stopId='DELIJN-408428', name='Tongeren Offelken', latitude=50.768831, longitude=5.460681, routes=[]}
Stop with no routes: Stop{stopId='DELIJN-408423', name='Zepperen Nachtegaal', latitude=50.851317, longitude=5.248899, routes=[]}
Stop with no routes: Stop{stopId='DELIJN-335004', name='Bekkevoort Hondstraatje', latitude=50.93614, longitude=4.961819, routes=[]}
Stop with no routes: Stop{stopId='DELIJN-335005', name='Bekkevoort Kuyperstraatje', latitude=50.929407, longitude=4.991526, routes=[]}
Stop with no routes: Stop{stopId='DELIJN-335008', name='Bekkevoort Veugelberg', latitude=50.960397, longitude=4.94255, routes=[]}
Stop with no routes: Stop{stopId='DELIJN-335009', name='Bierbeek Mollendaal', latitude=50.814934, longitude=4.755447, routes=[]}
Stop with no routes: Stop{stopId='DELIJN-408404', name='Hulst Ter Ploeg', latitude=51.070485, longitude=5.121733, routes=[]}
Stop with no routes: Stop{stopId='DELIJN-203396', name='Evergem Wippelgem Kerk', latitude=51.136571, longitude=3.719953, routes=[]}
Stop with no routes: Stop{stopId='SNCB-8896909_1', name='Izegem', latitude=50.92115, longitude=3.212089, routes=[]}
Stop with no routes: Stop{stopId='SNCB-8896909_2', name='Izegem', latitude=50.92115, longitude=3.212089, routes=[]}
Stop with no routes: Stop{stopId='STIB-0240135', name='1 - Rue Jules Cockx', latitude=50.815143, longitude=4.409264, routes=[]}
Stop with no routes: Stop{stopId='DELIJN-301841', name='Gorsem Metsterenweg', latitude=50.840914, longitude=5.160795, routes=[]}
Stop with no routes: Stop{stopId='DELIJN-301846', name='Gorsem Metsterenweg', latitude=50.840758, longitude=5.160578, routes=[]}
Stop with no routes: Stop{stopId='SNCB-8833605_1', name='Landen', latitude=50.74793, longitude=5.07966, routes=[]}
Stop with no routes: Stop{stopId='SNCB-8833605_2', name='Landen', latitude=50.74793, longitude=5.07966, routes=[]}
Stop with no routes: Stop{stopId='SNCB-8833605_3', name='Landen', latitude=50.74793, longitude=5.07966, routes=[]}
Stop with no routes: Stop{stopId='SNCB-8833605_4', name='Landen', latitude=50.74793, longitude=5.07966, routes=[]}
Stop with no routes: Stop{stopId='SNCB-8833605_5', name='Landen', latitude=50.74793, longitude=5.07966, routes=[]}
Stop with no routes: Stop{stopId='STIB-0470438', name='4 - Boulevard Léopold II', latitude=50.862851, longitude=4.330131, routes=[]}
Stop with no routes: Stop{stopId='SNCB-8871811_2', name='Thuin', latitude=50.34274, longitude=4.28891, routes=[]}
Stop with no routes: Stop{stopId='SNCB-S8874609', name='Tamines', latitude=50.43223, longitude=4.608824, routes=[]}
Stop with no routes: Stop{stopId='SNCB-8874609_4', name='Tamines', latitude=50.43223, longitude=4.608824, routes=[]}
Stop with no routes: Stop{stopId='SNCB-8874609_2', name='Tamines', latitude=50.43223, longitude=4.608824, routes=[]}
Stop with no routes: Stop{stopId='SNCB-8874609_3', name='Tamines', latitude=50.43223, longitude=4.608824, routes=[]}
Stop with no routes: Stop{stopId='SNCB-8874609_1', name='Tamines', latitude=50.43223, longitude=4.608824, routes=[]}
Stop with no routes: Stop{stopId='SNCB-S8884004', name='Saint-Ghislain', latitude=50.44286, longitude=3.820255, routes=[]}
Stop with no routes: Stop{stopId='DELIJN-109697', name='Geel Bel Kerk', latitude=51.16305, longitude=5.063287, routes=[]}
Stop with no routes: Stop{stopId='DELIJN-109693', name='Geel Sint-Antoniusstraat', latitude=51.165923, longitude=5.063932, routes=[]}
Stop with no routes: Stop{stopId='DELIJN-408737', name='Tongeren Weg naar Industrieterrein', latitude=50.773238, longitude=5.475796, routes=[]}
Stop with no routes: Stop{stopId='DELIJN-408746', name='Tongeren Wijkstraat', latitude=50.772656, longitude=5.460709, routes=[]}
Stop with no routes: Stop{stopId='DELIJN-408715', name='Vreren Hamal', latitude=50.761836, longitude=5.475712, routes=[]}
Stop with no routes: Stop{stopId='DELIJN-109659', name='Heist-op-den-Berg Kerkbossenstraat', latitude=51.071087, longitude=4.702358, routes=[]}
Stop with no routes: Stop{stopId='SNCB-8864824_2', name='Chapois', latitude=50.26237, longitude=5.12426, routes=[]}
Stop with no routes: Stop{stopId='DELIJN-109652', name='Branst Kraeyhoeve', latitude=51.075657, longitude=4.203732, routes=[]}
Stop with no routes: Stop{stopId='SNCB-8864824_1', name='Chapois', latitude=50.26237, longitude=5.12426, routes=[]}
Stop with no routes: Stop{stopId='SNCB-8821402_1', name='Essen', latitude=51.46276, longitude=4.451318, routes=[]}
Stop with no routes: Stop{stopId='SNCB-8821402_2', name='Essen', latitude=51.46276, longitude=4.451318, routes=[]}
Stop with no routes: Stop{stopId='SNCB-8821402_3', name='Essen', latitude=51.46276, longitude=4.451318, routes=[]}
Stop with no routes: Stop{stopId='DELIJN-408708', name='Tongeren Vormingscentrum', latitude=50.771129, longitude=5.476104, routes=[]}
Stop with no routes: Stop{stopId='DELIJN-408709', name='Schulen Tichelstraat II', latitude=50.957109, longitude=5.18594, routes=[]}
Stop with no routes: Stop{stopId='DELIJN-408798', name='Diets-Heur Kerk', latitude=50.745535, longitude=5.483009, routes=[]}
Stop with no routes: Stop{stopId='DELIJN-408795', name='Nieuw Tongeren Sint-Jozefsplein', latitude=50.787923, longitude=5.469077, routes=[]}
Stop with no routes: Stop{stopId='DELIJN-408775', name='Henis Kerk', latitude=50.798548, longitude=5.47027, routes=[]}
Stop with no routes: Stop{stopId='SNCB-8814415_1', name='Huizingen', latitude=50.7519, longitude=4.266485, routes=[]}
Stop with no routes: Stop{stopId='DELIJN-408776', name='Lauw Daalbroek', latitude=50.744982, longitude=5.419906, routes=[]}
Stop with no routes: Stop{stopId='SNCB-8814415_2', name='Huizingen', latitude=50.7519, longitude=4.266485, routes=[]}
Stop with no routes: Stop{stopId='DELIJN-408773', name='Tongeren Begijnestraat', latitude=50.774851, longitude=5.475207, routes=[]}
Stop with no routes: Stop{stopId='DELIJN-408792', name='Mulken De Locht', latitude=50.789625, longitude=5.44997, routes=[]}
Stop with no routes: Stop{stopId='DELIJN-408785', name='Nieuw Tongeren Ziegelsmeer', latitude=50.791191, longitude=5.469501, routes=[]}
Stop with no routes: Stop{stopId='DELIJN-408755', name='Riksingen Kerk', latitude=50.80571, longitude=5.462459, routes=[]}
Stop with no routes: Stop{stopId='SNCB-S8811007', name='Schaerbeek', latitude=50.87851, longitude=4.37864, routes=[]}
Stop with no routes: Stop{stopId='DELIJN-408762', name='Riksingen Sint-Geertruistraat', latitude=50.80867, longitude=5.458215, routes=[]}
Stop with no routes: Stop{stopId='SNCB-8892056_4', name='Landegem', latitude=51.06431, longitude=3.576856, routes=[]}
Stop with no routes: Stop{stopId='SNCB-S8874724', name='Jemeppe-sur-Sambre', latitude=50.45095, longitude=4.66263, routes=[]}
Stop with no routes: Stop{stopId='SNCB-8892056_2', name='Landegem', latitude=51.06431, longitude=3.576856, routes=[]}
Stop with no routes: Stop{stopId='SNCB-8892056_3', name='Landegem', latitude=51.06431, longitude=3.576856, routes=[]}
Stop with no routes: Stop{stopId='SNCB-8866001_5', name='Arlon', latitude=49.68053, longitude=5.809972, routes=[]}
Stop with no routes: Stop{stopId='SNCB-8892056_1', name='Landegem', latitude=51.06431, longitude=3.576856, routes=[]}
Stop with no routes: Stop{stopId='SNCB-8866001_1', name='Arlon', latitude=49.68053, longitude=5.809972, routes=[]}
Stop with no routes: Stop{stopId='SNCB-8866001_2', name='Arlon', latitude=49.68053, longitude=5.809972, routes=[]}
Stop with no routes: Stop{stopId='SNCB-8866001_3', name='Arlon', latitude=49.68053, longitude=5.809972, routes=[]}
Stop with no routes: Stop{stopId='SNCB-8866001_4', name='Arlon', latitude=49.68053, longitude=5.809972, routes=[]}
Stop with no routes: Stop{stopId='SNCB-S8811155', name='Haren', latitude=50.88888, longitude=4.41998, routes=[]}
Stop with no routes: Stop{stopId='SNCB-S8874716', name='Auvelais', latitude=50.4492, longitude=4.630534, routes=[]}
Stop with no routes: Stop{stopId='SNCB-S8811148', name='Buda', latitude=50.9075, longitude=4.417075, routes=[]}
Stop with no routes: Stop{stopId='SNCB-S8811171', name='Meiser', latitude=50.85407, longitude=4.394424, routes=[]}
Stop with no routes: Stop{stopId='SNCB-S8811163', name='Bordet', latitude=50.87779, longitude=4.410024, routes=[]}
Stop with no routes: Stop{stopId='SNCB-8812013_1', name='Simonis', latitude=50.86364, longitude=4.328982, routes=[]}
Stop with no routes: Stop{stopId='SNCB-8812013_2', name='Simonis', latitude=50.86364, longitude=4.328982, routes=[]}
Stop with no routes: Stop{stopId='SNCB-S8811197', name='Mérode', latitude=50.83928, longitude=4.398932, routes=[]}
Stop with no routes: Stop{stopId='STIB-0470338', name='3 - Rue de l'Armistice', latitude=50.86269, longitude=4.329918, routes=[]}
Stop with no routes: Stop{stopId='SNCB-S8811189', name='Vilvorde', latitude=50.92458, longitude=4.432826, routes=[]}
Stop with no routes: Stop{stopId='DELIJN-203438', name='Zelzate Koophandelsplein', latitude=51.190823, longitude=3.795216, routes=[]}
Stop with no routes: Stop{stopId='DELIJN-109586', name='Heist-op-den-Berg Moretuslaan', latitude=51.066047, longitude=4.707024, routes=[]}
Stop with no routes: Stop{stopId='DELIJN-109584', name='Heist-op-den-Berg Plantijnlaan', latitude=51.0677, longitude=4.709172, routes=[]}
Stop with no routes: Stop{stopId='DELIJN-109583', name='Heist-op-den-Berg Schoorstraat', latitude=51.06456, longitude=4.713906, routes=[]}
Stop with no routes: Stop{stopId='DELIJN-109581', name='Heist-op-den-Berg Kleine Langveldstraat', latitude=51.057099, longitude=4.706942, routes=[]}
Stop with no routes: Stop{stopId='DELIJN-301915', name='Boortmeerbeek Leibeek', latitude=50.990895, longitude=4.581325, routes=[]}
Stop with no routes: Stop{stopId='DELIJN-109579', name='Heist-op-den-Berg Burgerheide', latitude=51.051512, longitude=4.708696, routes=[]}
Stop with no routes: Stop{stopId='DELIJN-109578', name='Heist-op-den-Berg Halfbunder', latitude=51.052025, longitude=4.706027, routes=[]}
Stop with no routes: Stop{stopId='DELIJN-109575', name='Heist-op-den-Berg Hollandstraat', latitude=51.043787, longitude=4.699313, routes=[]}
Stop with no routes: Stop{stopId='DELIJN-109576', name='Heist-op-den-Berg 's Gravenhagestraat', latitude=51.048793, longitude=4.703304, routes=[]}
Stop with no routes: Stop{stopId='DELIJN-109571', name='Liezele Achterheide', latitude=51.055799, longitude=4.263104, routes=[]}
Stop with no routes: Stop{stopId='DELIJN-109572', name='Heist-op-den-Berg Achterheideweg', latitude=51.037332, longitude=4.701119, routes=[]}
Stop with no routes: Stop{stopId='DELIJN-109539', name='Heist-op-den-Berg Schaatsbaan', latitude=51.067858, longitude=4.715696, routes=[]}
Stop with no routes: Stop{stopId='SNCB-8822137_1', name='Malderen', latitude=51.01449, longitude=4.22911, routes=[]}
Stop with no routes: Stop{stopId='SNCB-8822137_2', name='Malderen', latitude=51.01449, longitude=4.22911, routes=[]}
Stop with no routes: Stop{stopId='DELIJN-408676', name='Paal Beukenstraat', latitude=51.032628, longitude=5.161928, routes=[]}
Stop with no routes: Stop{stopId='SNCB-S8811106', name='Evere', latitude=50.86778, longitude=4.400963, routes=[]}
Stop with no routes: Stop{stopId='DELIJN-408668', name='Riksingen Dreef', latitude=50.812762, longitude=5.466531, routes=[]}
Stop with no routes: Stop{stopId='SNCB-8872306_2', name='Lodelinsart', latitude=50.43245, longitude=4.46295, routes=[]}
Stop with no routes: Stop{stopId='SNCB-8872306_1', name='Lodelinsart', latitude=50.43245, longitude=4.46295, routes=[]}
Stop with no routes: Stop{stopId='SNCB-S8811130', name='Haren-Sud', latitude=50.88969, longitude=4.415358, routes=[]}
Stop with no routes: Stop{stopId='DELIJN-408633', name='Tongeren Neremweg', latitude=50.777842, longitude=5.472464, routes=[]}
Stop with no routes: Stop{stopId='STIB-0240235', name='2 - Rue Jules Cockx', latitude=50.815251, longitude=4.408625, routes=[]}
Stop with no routes: Stop{stopId='DELIJN-408042', name='Terbiest Speelplein', latitude=50.828163, longitude=5.21445, routes=[]}
Stop with no routes: Stop{stopId='DELIJN-408038', name='Genebos Kerpensberg', latitude=51.080834, longitude=5.127828, routes=[]}
Stop with no routes: Stop{stopId='DELIJN-408001', name='Kortenbos Heide', latitude=50.865967, longitude=5.221984, routes=[]}
Stop with no routes: Stop{stopId='SNCB-8812252_1', name='Ternat', latitude=50.87452, longitude=4.16534, routes=[]}
Stop with no routes: Stop{stopId='SNCB-8812252_2', name='Ternat', latitude=50.87452, longitude=4.16534, routes=[]}
Stop with no routes: Stop{stopId='SNCB-8812252_3', name='Ternat', latitude=50.87452, longitude=4.16534, routes=[]}
Stop with no routes: Stop{stopId='SNCB-8892643_1', name='Gavere-Asper', latitude=50.93002, longitude=3.639728, routes=[]}
Stop with no routes: Stop{stopId='STIB-0431050', name='3 - Boulevard Adolphe Max', latitude=50.855257, longitude=4.357899, routes=[]}
Stop with no routes: Stop{stopId='SNCB-8892643_2', name='Gavere-Asper', latitude=50.93002, longitude=3.639728, routes=[]}
Stop with no routes: Stop{stopId='DELIJN-506578', name='Schore Spermalie', latitude=51.121396, longitude=2.847276, routes=[]}
Stop with no routes: Stop{stopId='STIB-0470638', name='6 - Place Simonis', latitude=50.863435, longitude=4.328369, routes=[]}
Stop with no routes: Stop{stopId='SNCB-S8874005', name='Châtelet', latitude=50.4101, longitude=4.52186, routes=[]}
Stop with no routes: Stop{stopId='DELIJN-207954', name='Opwijk Hoeksken', latitude=50.979618, longitude=4.156088, routes=[]}
Stop with no routes: Stop{stopId='DELIJN-207956', name='Opwijk Rustoord De Oase', latitude=50.966752, longitude=4.183397, routes=[]}
Stop with no routes: Stop{stopId='DELIJN-408088', name='Genebos Zwaluwstraat', latitude=51.083904, longitude=5.133256, routes=[]}
Stop with no routes: Stop{stopId='DELIJN-301152', name='Liezele Fort', latitude=51.068875, longitude=4.281909, routes=[]}
Stop with no routes: Stop{stopId='DELIJN-301180', name='Kaggevinne Ketelwinning', latitude=50.977413, longitude=5.019613, routes=[]}
Stop with no routes: Stop{stopId='DELIJN-301181', name='Kaggevinne Grootveld', latitude=50.9762, longitude=5.02605, routes=[]}
Stop with no routes: Stop{stopId='SNCB-8814167_1', name='Rhode-Saint-Genèse', latitude=50.74781, longitude=4.362001, routes=[]}
Stop with no routes: Stop{stopId='SNCB-8814167_2', name='Rhode-Saint-Genèse', latitude=50.74781, longitude=4.362001, routes=[]}
Stop with no routes: Stop{stopId='STIB-7680126', name='1 - Place Bizet', latitude=50.825215, longitude=4.297873, routes=[]}
Stop with no routes: Stop{stopId='SNCB-8871225_1', name='Courcelles-Motte', latitude=50.46201, longitude=4.40053, routes=[]}
Stop with no routes: Stop{stopId='DELIJN-301198', name='Kaggevinne Galgenveld', latitude=50.97712, longitude=5.031253, routes=[]}
Stop with no routes: Stop{stopId='SNCB-8871225_2', name='Courcelles-Motte', latitude=50.46201, longitude=4.40053, routes=[]}
Stop with no routes: Stop{stopId='DELIJN-301191', name='Kaggevinne Lindeboomstraat', latitude=50.976765, longitude=5.037965, routes=[]}
Stop with no routes: Stop{stopId='SNCB-8871225_3', name='Courcelles-Motte', latitude=50.46201, longitude=4.40053, routes=[]}
Stop with no routes: Stop{stopId='SNCB-8871225_4', name='Courcelles-Motte', latitude=50.46201, longitude=4.40053, routes=[]}
Stop with no routes: Stop{stopId='DELIJN-301193', name='Diest Frankenstraat', latitude=50.978198, longitude=5.045772, routes=[]}
Stop with no routes: Stop{stopId='DELIJN-301194', name='Diest Bloemenlaan', latitude=50.978752, longitude=5.051271, routes=[]}
Stop with no routes: Stop{stopId='SNCB-8892403_1', name='Kortemark', latitude=51.02525, longitude=3.043456, routes=[]}
Stop with no routes: Stop{stopId='SNCB-8892403_2', name='Kortemark', latitude=51.02525, longitude=3.043456, routes=[]}
Stop with no routes: Stop{stopId='DELIJN-301103', name='Overhespen Villa Torré', latitude=50.800019, longitude=5.031355, routes=[]}
Stop with no routes: Stop{stopId='STIB-0240335', name='3 - Avenue des Meuniers', latitude=50.815107, longitude=4.410413, routes=[]}
Stop with no routes: Stop{stopId='SNCB-8831401_3', name='Diest', latitude=50.99334, longitude=5.05003, routes=[]}
Stop with no routes: Stop{stopId='SNCB-8831401_4', name='Diest', latitude=50.99334, longitude=5.05003, routes=[]}
Stop with no routes: Stop{stopId='SNCB-8831401_1', name='Diest', latitude=50.99334, longitude=5.05003, routes=[]}
Stop with no routes: Stop{stopId='SNCB-8831401_2', name='Diest', latitude=50.99334, longitude=5.05003, routes=[]}
Stop with no routes: Stop{stopId='SNCB-8864436_1', name='Melreux-Hotton', latitude=50.28367, longitude=5.44014, routes=[]}
Stop with no routes: Stop{stopId='SNCB-8864436_2', name='Melreux-Hotton', latitude=50.28367, longitude=5.44014, routes=[]}
Stop with no routes: Stop{stopId='SNCB-8822277_1', name='Hofstade', latitude=50.98866, longitude=4.49834, routes=[]}
Stop with no routes: Stop{stopId='SNCB-8822277_2', name='Hofstade', latitude=50.98866, longitude=4.49834, routes=[]}
Stop with no routes: Stop{stopId='SNCB-S8874054', name='Couillet', latitude=50.39272, longitude=4.468512, routes=[]}
Stop with no routes: Stop{stopId='STIB-0240435', name='4 - Avenue des Meuniers', latitude=50.81499, longitude=4.410427, routes=[]}
Stop with no routes: Stop{stopId='SNCB-8811817_2', name='Céroux-Mousty', latitude=50.65994, longitude=4.569049, routes=[]}
Stop with no routes: Stop{stopId='SNCB-8811817_1', name='Céroux-Mousty', latitude=50.65994, longitude=4.569049, routes=[]}
Stop with no routes: Stop{stopId='DELIJN-506729', name='Zwevezele WZC Maria ter Ruste', latitude=51.037004, longitude=3.215804, routes=[]}
Stop with no routes: Stop{stopId='DELIJN-408284', name='Tessenderlo Kromme Hoorn', latitude=51.058564, longitude=5.076941, routes=[]}
Stop with no routes: Stop{stopId='DELIJN-506748', name='Blankenberge Maritieme Zone', latitude=51.308687, longitude=3.117201, routes=[]}
Stop with no routes: Stop{stopId='DELIJN-506749', name='Heist Willemspark', latitude=51.339727, longitude=3.25084, routes=[]}
Stop with no routes: Stop{stopId='DELIJN-408292', name='Tessenderlo Kruisstraat', latitude=51.053273, longitude=5.084297, routes=[]}
Stop with no routes: Stop{stopId='SNCB-8811171_1', name='Meiser', latitude=50.85407, longitude=4.394424, routes=[]}
Stop with no routes: Stop{stopId='SNCB-8811171_2', name='Meiser', latitude=50.85407, longitude=4.394424, routes=[]}
Stop with no routes: Stop{stopId='DELIJN-408262', name='Tessenderlo Houtzagerij', latitude=51.076924, longitude=5.167742, routes=[]}
Stop with no routes: Stop{stopId='DELIJN-408260', name='Tessenderlo Houterenberg', latitude=51.045261, longitude=5.051383, routes=[]}
Stop with no routes: Stop{stopId='SNCB-8885530_1', name='Maubray', latitude=50.54756, longitude=3.495523, routes=[]}
Stop with no routes: Stop{stopId='SNCB-8885530_2', name='Maubray', latitude=50.54756, longitude=3.495523, routes=[]}
Stop with no routes: Stop{stopId='SNCB-S8864832', name='Haversin', latitude=50.24904, longitude=5.194376, routes=[]}
Stop with no routes: Stop{stopId='SNCB-8841442_1', name='Remicourt', latitude=50.67861, longitude=5.32141, routes=[]}
Stop with no routes: Stop{stopId='SNCB-8841442_2', name='Remicourt', latitude=50.67861, longitude=5.32141, routes=[]}
Stop with no routes: Stop{stopId='SNCB-S8864824', name='Chapois', latitude=50.26237, longitude=5.12426, routes=[]}
Stop with no routes: Stop{stopId='DELIJN-408234', name='Engsbergen Eggers 15', latitude=51.033795, longitude=5.072056, routes=[]}
Stop with no routes: Stop{stopId='DELIJN-408235', name='Engsbergen Eggers 15', latitude=51.033846, longitude=5.071979, routes=[]}
Stop with no routes: Stop{stopId='SNCB-S8864816', name='Leignon', latitude=50.26777, longitude=5.10778, routes=[]}
Stop with no routes: Stop{stopId='DELIJN-408243', name='Engsbergen Lindenstraat', latitude=51.03434, longitude=5.052119, routes=[]}
Stop with no routes: Stop{stopId='DELIJN-408244', name='Engsbergen Heuvelken', latitude=51.02691, longitude=5.032168, routes=[]}
Stop with no routes: Stop{stopId='SNCB-8832375_1', name='Kiewit', latitude=50.95485, longitude=5.350226, routes=[]}
Stop with no routes: Stop{stopId='SNCB-8832375_2', name='Kiewit', latitude=50.95485, longitude=5.350226, routes=[]}
Stop with no routes: Stop{stopId='DELIJN-531781', name='Sint-Baafs-Vijve Dorp', latitude=50.911286, longitude=3.389173, routes=[]}
Stop with no routes: Stop{stopId='SNCB-8841202_1', name='Ans', latitude=50.66121, longitude=5.5097, routes=[]}
Stop with no routes: Stop{stopId='SNCB-8841202_2', name='Ans', latitude=50.66121, longitude=5.5097, routes=[]}
Stop with no routes: Stop{stopId='SNCB-8841202_3', name='Ans', latitude=50.66121, longitude=5.5097, routes=[]}
Stop with no routes: Stop{stopId='SNCB-8841202_4', name='Ans', latitude=50.66121, longitude=5.5097, routes=[]}
Stop with no routes: Stop{stopId='SNCB-8841202_5', name='Ans', latitude=50.66121, longitude=5.5097, routes=[]}
Stop with no routes: Stop{stopId='DELIJN-506786', name='Blankenberge Pier', latitude=51.318558, longitude=3.141599, routes=[]}
Stop with no routes: Stop{stopId='DELIJN-506792', name='Heist Heldenplein', latitude=51.340147, longitude=3.240969, routes=[]}
Stop with no routes: Stop{stopId='DELIJN-506793', name='Duinbergen Kerk', latitude=51.340671, longitude=3.262529, routes=[]}
Stop with no routes: Stop{stopId='DELIJN-506795', name='Duinbergen Kerk', latitude=51.340874, longitude=3.261092, routes=[]}
Stop with no routes: Stop{stopId='DELIJN-506796', name='Heist Heldenplein', latitude=51.340465, longitude=3.240891, routes=[]}
Stop with no routes: Stop{stopId='SNCB-8863115_2', name='Jambes', latitude=50.45485, longitude=4.876143, routes=[]}
Stop with no routes: Stop{stopId='SNCB-8863115_3', name='Jambes', latitude=50.45485, longitude=4.876143, routes=[]}
Stop with no routes: Stop{stopId='SNCB-8863115_1', name='Jambes', latitude=50.45485, longitude=4.876143, routes=[]}
Stop with no routes: Stop{stopId='SNCB-8821543_1', name='Sint-Mariaburg', latitude=51.29165, longitude=4.434902, routes=[]}
Stop with no routes: Stop{stopId='SNCB-8821543_2', name='Sint-Mariaburg', latitude=51.29165, longitude=4.434902, routes=[]}
Stop with no routes: Stop{stopId='DELIJN-408340', name='Tessenderlo Gerhees', latitude=51.053516, longitude=5.03375, routes=[]}
Stop with no routes: Stop{stopId='STIB-0240535', name='5 - Rue Jules Cockx', latitude=50.815116, longitude=4.408654, routes=[]}
Stop with no routes: Stop{stopId='DELIJN-408343', name='Tessenderlo Russelenberg', latitude=51.060258, longitude=5.075195, routes=[]}
Stop with no routes: Stop{stopId='DELIJN-408317', name='Schoot Baan', latitude=51.060132, longitude=5.044969, routes=[]}
Stop with no routes: Stop{stopId='DELIJN-408310', name='Tessenderlo Rijt', latitude=51.07304, longitude=5.083353, routes=[]}
Stop with no routes: Stop{stopId='DELIJN-408305', name='Hulst Waterstraat', latitude=51.065837, longitude=5.132685, routes=[]}
Stop with no routes: Stop{stopId='DELIJN-408184', name='Klein-Gelmen Kerk', latitude=50.770813, longitude=5.274932, routes=[]}
Stop with no routes: Stop{stopId='DELIJN-408185', name='Klein-Gelmen Engelmanshovenstraat', latitude=50.77301, longitude=5.274965, routes=[]}
Stop with no routes: Stop{stopId='DELIJN-408186', name='Groot-Gelmen Kerk', latitude=50.782184, longitude=5.265934, routes=[]}
Stop with no routes: Stop{stopId='DELIJN-408187', name='Groot-Gelmen Bergstraat', latitude=50.784835, longitude=5.262399, routes=[]}
Stop with no routes: Stop{stopId='DELIJN-408180', name='Gelinden Barettestraat', latitude=50.760502, longitude=5.257944, routes=[]}
Stop with no routes: Stop{stopId='DELIJN-408181', name='Gelinden Akkerhof', latitude=50.763287, longitude=5.261504, routes=[]}
Stop with no routes: Stop{stopId='DELIJN-408182', name='Gelinden Gemeentehuis', latitude=50.764829, longitude=5.261319, routes=[]}
Stop with no routes: Stop{stopId='DELIJN-408183', name='Gelinden Schabroek', latitude=50.767695, longitude=5.268276, routes=[]}
Stop with no routes: Stop{stopId='DELIJN-203030', name='Sleidinge Langendam', latitude=51.133285, longitude=3.65836, routes=[]}
Stop with no routes: Stop{stopId='DELIJN-408178', name='Engelmanshoven Populierenstraat', latitude=50.764705, longitude=5.251803, routes=[]}
Stop with no routes: Stop{stopId='DELIJN-408179', name='Engelmanshoven Kapel', latitude=50.761625, longitude=5.25552, routes=[]}
Stop with no routes: Stop{stopId='SNCB-S8864915', name='Natoye', latitude=50.3433, longitude=5.061162, routes=[]}
Stop with no routes: Stop{stopId='DELIJN-408188', name='Groot-Gelmen Merelstraat', latitude=50.781105, longitude=5.259285, routes=[]}
Stop with no routes: Stop{stopId='DELIJN-408189', name='Gelinden Kerk', latitude=50.767048, longitude=5.262963, routes=[]}
Stop with no routes: Stop{stopId='DELIJN-408176', name='Engelmanshoven Driewilgenstraat', latitude=50.770216, longitude=5.248616, routes=[]}
Stop with no routes: Stop{stopId='DELIJN-408166', name='Sint-Truiden H. Hartplein', latitude=50.815392, longitude=5.186763, routes=[]}
Stop with no routes: Stop{stopId='DELIJN-408167', name='Sint-Truiden Sint-Martenplein', latitude=50.8154, longitude=5.182357, routes=[]}
Stop with no routes: Stop{stopId='DELIJN-203074', name='Maldegem Van Strydoncklaan', latitude=51.191206, longitude=3.400019, routes=[]}
Stop with no routes: Stop{stopId='DELIJN-203075', name='Adegem Canadees Museum', latitude=51.190293, longitude=3.501215, routes=[]}
Stop with no routes: Stop{stopId='DELIJN-301504', name='Grazen Kerk', latitude=50.872512, longitude=5.12532, routes=[]}
Stop with no routes: Stop{stopId='SNCB-S8864964', name='Naninne', latitude=50.41969, longitude=4.929754, routes=[]}
Stop with no routes: Stop{stopId='DELIJN-203077', name='Maldegem Gidsenlaan', latitude=51.214322, longitude=3.445104, routes=[]}
Stop with no routes: Stop{stopId='DELIJN-408151', name='Ordingen Kloostermolen', latitude=50.814724, longitude=5.234893, routes=[]}
Stop with no routes: Stop{stopId='SNCB-S8864949', name='Courrière', latitude=50.38744, longitude=4.996051, routes=[]}
Stop with no routes: Stop{stopId='SNCB-S8864956', name='Sart-Bernard', latitude=50.40637, longitude=4.94974, routes=[]}
Stop with no routes: Stop{stopId='DELIJN-408149', name='Ordingen Sint-Jorislaan', latitude=50.814034, longitude=5.230663, routes=[]}
Stop with no routes: Stop{stopId='DELIJN-203056', name='Maldegem Ommeloper', latitude=51.206244, longitude=3.459313, routes=[]}
Stop with no routes: Stop{stopId='DELIJN-203057', name='Maldegem Godshuis', latitude=51.20823, longitude=3.451157, routes=[]}
Stop with no routes: Stop{stopId='SNCB-S8864931', name='Assesse', latitude=50.36814, longitude=5.022836, routes=[]}
Stop with no routes: Stop{stopId='DELIJN-408124', name='Genebos Bergstraat', latitude=51.088268, longitude=5.141701, routes=[]}
Stop with no routes: Stop{stopId='DELIJN-531655', name='Knokke Duinenwater', latitude=51.338683, longitude=3.275514, routes=[]}
Stop with no routes: Stop{stopId='STIB-0470738', name='6 - Place Simonis', latitude=50.864047, longitude=4.328866, routes=[]}
Stop with no routes: Stop{stopId='STIB-0431150', name='2 - Boulevard Adolphe Max', latitude=50.855162, longitude=4.357689, routes=[]}
Stop with no routes: Stop{stopId='DELIJN-408199', name='Sint-Truiden Nieuwenhoven', latitude=50.851734, longitude=5.216643, routes=[]}
Stop with no routes: Stop{stopId='DELIJN-109997', name='Ezaart Kerk', latitude=51.177908, longitude=5.089831, routes=[]}
Stop with no routes: Stop{stopId='SNCB-8846201_1', name='Visé', latitude=50.73776, longitude=5.692548, routes=[]}
Stop with no routes: Stop{stopId='SNCB-8846201_2', name='Visé', latitude=50.73776, longitude=5.692548, routes=[]}
Stop with no routes: Stop{stopId='SNCB-8846201_3', name='Visé', latitude=50.73776, longitude=5.692548, routes=[]}
Stop with no routes: Stop{stopId='DELIJN-109986', name='Mol Lidwina Stichting 1', latitude=51.191513, longitude=5.097274, routes=[]}
Stop with no routes: Stop{stopId='DELIJN-109984', name='Mol Ginderbuiten', latitude=51.20221, longitude=5.141489, routes=[]}
Stop with no routes: Stop{stopId='DELIJN-109920', name='Merksem Calesbergdreef', latitude=51.25044, longitude=4.46594, routes=[]}
Stop with no routes: Stop{stopId='DELIJN-109921', name='Schoten Calesbergdreef', latitude=51.251132, longitude=4.465665, routes=[]}
Stop with no routes: Stop{stopId='DELIJN-408214', name='Tessenderlo Begijnenwinning IV', latitude=51.072671, longitude=5.101017, routes=[]}
Stop with no routes: Stop{stopId='DELIJN-408225', name='Tessenderlo Baal', latitude=51.079389, longitude=5.077104, routes=[]}
Stop with no routes: Stop{stopId='SNCB-8891660_2', name='Knokke', latitude=51.3399, longitude=3.28519, routes=[]}
Stop with no routes: Stop{stopId='SNCB-8891702_10', name='Ostende', latitude=51.22821, longitude=2.92581, routes=[]}
Stop with no routes: Stop{stopId='SNCB-8891660_3', name='Knokke', latitude=51.3399, longitude=3.28519, routes=[]}
Stop with no routes: Stop{stopId='SNCB-8891660_1', name='Knokke', latitude=51.3399, longitude=3.28519, routes=[]}
Stop with no routes: Stop{stopId='SNCB-8881562_2', name='Genly', latitude=50.39064, longitude=3.91164, routes=[]}
Stop with no routes: Stop{stopId='SNCB-8881562_1', name='Genly', latitude=50.39064, longitude=3.91164, routes=[]}
Stop with no routes: Stop{stopId='SNCB-S8821071', name='Ekeren', latitude=51.28163, longitude=4.434153, routes=[]}
Stop with no routes: Stop{stopId='DELIJN-109087', name='Ramsel Kerk Ramselsesteenweg', latitude=51.032537, longitude=4.833233, routes=[]}
Stop with no routes: Stop{stopId='SNCB-S8821063', name='Anvers-Luchtbal', latitude=51.24413, longitude=4.425033, routes=[]}
Stop with no routes: Stop{stopId='SNCB-S8821089', name='Anvers-Noorderdokken', latitude=51.26164, longitude=4.42791, routes=[]}
Stop with no routes: Stop{stopId='SNCB-8873239_1', name='Yves-Gomezée', latitude=50.23698, longitude=4.500404, routes=[]}
Stop with no routes: Stop{stopId='SNCB-8832235_1', name='Beringen', latitude=51.0506, longitude=5.23589, routes=[]}
Stop with no routes: Stop{stopId='SNCB-8832235_2', name='Beringen', latitude=51.0506, longitude=5.23589, routes=[]}
Stop with no routes: Stop{stopId='SNCB-S8884632', name='Ville-Pommeroeul', latitude=50.46454, longitude=3.724245, routes=[]}
Stop with no routes: Stop{stopId='SNCB-8863156_1', name='Lustin', latitude=50.36975, longitude=4.877468, routes=[]}
Stop with no routes: Stop{stopId='SNCB-8863156_2', name='Lustin', latitude=50.36975, longitude=4.877468, routes=[]}
Stop with no routes: Stop{stopId='SNCB-S8884640', name='Harchies', latitude=50.48257, longitude=3.698768, routes=[]}
Stop with no routes: Stop{stopId='DELIJN-506116', name='Hoeke Brug', latitude=51.292027, longitude=3.336181, routes=[]}
Stop with no routes: Stop{stopId='DELIJN-109011', name='Mariekerke Bolleshof', latitude=51.066707, longitude=4.190408, routes=[]}
Stop with no routes: Stop{stopId='SNCB-8881174_1', name='Masnuy-Saint-Pierre', latitude=50.53655, longitude=3.96214, routes=[]}
Stop with no routes: Stop{stopId='SNCB-8881174_2', name='Masnuy-Saint-Pierre', latitude=50.53655, longitude=3.96214, routes=[]}
Stop with no routes: Stop{stopId='SNCB-8891173_1', name='Zeebrugge-Strand', latitude=51.3305, longitude=3.184028, routes=[]}
Stop with no routes: Stop{stopId='DELIJN-506072', name='De Panne Kerk', latitude=51.093046, longitude=2.589925, routes=[]}
Stop with no routes: Stop{stopId='SNCB-S8811601', name='Ottignies', latitude=50.67367, longitude=4.56936, routes=[]}
Stop with no routes: Stop{stopId='DELIJN-506001', name='Wervik De Fakkel', latitude=50.782018, longitude=3.068964, routes=[]}
Stop with no routes: Stop{stopId='SNCB-S8811635', name='Limal', latitude=50.69214, longitude=4.5753, routes=[]}
Stop with no routes: Stop{stopId='SNCB-S8811676', name='Louvain-la-Neuve', latitude=50.6698, longitude=4.615746, routes=[]}
Stop with no routes: Stop{stopId='SNCB-8895778_1', name='Okegem', latitude=50.85772, longitude=4.054554, routes=[]}
Stop with no routes: Stop{stopId='SNCB-8895778_2', name='Okegem', latitude=50.85772, longitude=4.054554, routes=[]}
Stop with no routes: Stop{stopId='SNCB-8866142_1', name='Habay', latitude=49.71825, longitude=5.632689, routes=[]}
Stop with no routes: Stop{stopId='SNCB-8866142_2', name='Habay', latitude=49.71825, longitude=5.632689, routes=[]}
Stop with no routes: Stop{stopId='SNCB-S8821006', name='Anvers-Central', latitude=51.2172, longitude=4.421098, routes=[]}
Stop with no routes: Stop{stopId='SNCB-8864964_1', name='Naninne', latitude=50.41969, longitude=4.929754, routes=[]}
Stop with no routes: Stop{stopId='SNCB-8864964_2', name='Naninne', latitude=50.41969, longitude=4.929754, routes=[]}
Stop with no routes: Stop{stopId='SNCB-S8845005', name='Gouvy', latitude=50.18941, longitude=5.95391, routes=[]}
Stop with no routes: Stop{stopId='STIB-0250136', name='1 - Avenue E.Van Nieuwenhuyse', latitude=50.813692, longitude=4.419436, routes=[]}
Stop with no routes: Stop{stopId='DELIJN-305966', name='Schaffen Kerkhof', latitude=50.997614, longitude=5.081072, routes=[]}
Stop with no routes: Stop{stopId='DELIJN-305951', name='Diest Meidoornstraat', latitude=50.977418, longitude=5.063458, routes=[]}
Stop with no routes: Stop{stopId='SNCB-S8821196', name='Anvers-Sud', latitude=51.19783, longitude=4.390264, routes=[]}
Stop with no routes: Stop{stopId='SNCB-S8845146', name='Vielsalm', latitude=50.27893, longitude=5.909209, routes=[]}
Stop with no routes: Stop{stopId='DELIJN-207616', name='Zandbergen Steengroeveweg', latitude=50.797202, longitude=3.974771, routes=[]}
Stop with no routes: Stop{stopId='DELIJN-207670', name='Hemelveerdegem Paepemunte', latitude=50.808964, longitude=3.863761, routes=[]}
Stop with no routes: Stop{stopId='DELIJN-207676', name='Zegelsem Leberg', latitude=50.825743, longitude=3.722024, routes=[]}
Stop with no routes: Stop{stopId='DELIJN-207677', name='Elst Arme Kleie', latitude=50.840355, longitude=3.724026, routes=[]}
Stop with no routes: Stop{stopId='DELIJN-207678', name='Erwetegem Rustoord De Vlamme', latitude=50.852702, longitude=3.801685, routes=[]}
Stop with no routes: Stop{stopId='DELIJN-207663', name='Sint-Maria-Lierde Waesberg', latitude=50.828036, longitude=3.841845, routes=[]}
Stop with no routes: Stop{stopId='SNCB-8812211_1', name='Berchem-Sainte-Agathe', latitude=50.87263, longitude=4.289892, routes=[]}
Stop with no routes: Stop{stopId='SNCB-8812211_2', name='Berchem-Sainte-Agathe', latitude=50.87263, longitude=4.289892, routes=[]}
Stop with no routes: Stop{stopId='SNCB-S8894151', name='Beervelde', latitude=51.08753, longitude=3.879383, routes=[]}
Stop with no routes: Stop{stopId='SNCB-S8811817', name='Céroux-Mousty', latitude=50.65994, longitude=4.569049, routes=[]}
Stop with no routes: Stop{stopId='SNCB-8843158_1', name='Jemeppe-sur-Meuse', latitude=50.61845, longitude=5.497871, routes=[]}
Stop with no routes: Stop{stopId='SNCB-8843158_2', name='Jemeppe-sur-Meuse', latitude=50.61845, longitude=5.497871, routes=[]}
Stop with no routes: Stop{stopId='SNCB-S8811718', name='Bierges-Walibi', latitude=50.70777, longitude=4.59475, routes=[]}
Stop with no routes: Stop{stopId='SNCB-S8811734', name='Basse-Wavre', latitude=50.72442, longitude=4.621653, routes=[]}
Stop with no routes: Stop{stopId='SNCB-8883238_1', name='Familleureux', latitude=50.51936, longitude=4.21158, routes=[]}
Stop with no routes: Stop{stopId='SNCB-8883238_2', name='Familleureux', latitude=50.51936, longitude=4.21158, routes=[]}
Stop with no routes: Stop{stopId='SNCB-S8811726', name='Wavre', latitude=50.71627, longitude=4.60478, routes=[]}
Stop with no routes: Stop{stopId='DELIJN-217086', name='Aalst Car Wash (tijdelijk)', latitude=50.961167, longitude=4.055477, routes=[]}
Stop with no routes: Stop{stopId='DELIJN-217087', name='Aalst Tupperware (tijdelijk)', latitude=50.963181, longitude=4.050396, routes=[]}
Stop with no routes: Stop{stopId='DELIJN-217088', name='Aalst Honda (tijdelijk)', latitude=50.956337, longitude=4.039872, routes=[]}
Stop with no routes: Stop{stopId='DELIJN-217089', name='Aalst Verbrandhofstraat (tijdelijk)', latitude=50.950572, longitude=4.041347, routes=[]}
Stop with no routes: Stop{stopId='DELIJN-217090', name='Erembodegem Industriepark Zuid (tijdelijk)', latitude=50.909224, longitude=4.045055, routes=[]}
Stop with no routes: Stop{stopId='DELIJN-217091', name='Erembodegem Somati (tijdelijk)', latitude=50.910566, longitude=4.041501, routes=[]}
Stop with no routes: Stop{stopId='DELIJN-217092', name='Erembodegem De Geyndt (tijdelijk)', latitude=50.912043, longitude=4.037251, routes=[]}
Stop with no routes: Stop{stopId='DELIJN-217094', name='Nederbrakel Kerkhof', latitude=50.807862, longitude=3.761092, routes=[]}
Stop with no routes: Stop{stopId='SNCB-S8811759', name='Archennes', latitude=50.75435, longitude=4.662441, routes=[]}
Stop with no routes: Stop{stopId='SNCB-S8811742', name='Gastuche', latitude=50.73665, longitude=4.6496, routes=[]}
Stop with no routes: Stop{stopId='SNCB-S8811775', name='Pécrot', latitude=50.77851, longitude=4.651483, routes=[]}
Stop with no routes: Stop{stopId='SNCB-S8811767', name='Florival', latitude=50.7615, longitude=4.65387, routes=[]}
Stop with no routes: Stop{stopId='STIB-0250236', name='2 - Avenue Louis Dehoux', latitude=50.814051, longitude=4.420629, routes=[]}
Stop with no routes: Stop{stopId='SNCB-S8821105', name='Noorderkempen (Brecht)', latitude=51.35683, longitude=4.6322, routes=[]}
Stop with no routes: Stop{stopId='DELIJN-207691', name='Lebbeke Heilig Kruiskapel', latitude=50.985675, longitude=4.153851, routes=[]}
Stop with no routes: Stop{stopId='DELIJN-207695', name='Opwijk Bolstraat', latitude=50.982286, longitude=4.171158, routes=[]}
Stop with no routes: Stop{stopId='SNCB-S8884715', name='Blaton', latitude=50.50546, longitude=3.666308, routes=[]}
Stop with no routes: Stop{stopId='DELIJN-217072', name='Bavegem Hoge Hellesemweg', latitude=50.946126, longitude=3.861803, routes=[]}
Stop with no routes: Stop{stopId='SNCB-S8821121', name='Anvers-Berchem', latitude=51.19923, longitude=4.432219, routes=[]}
Stop with no routes: Stop{stopId='DELIJN-207681', name='Sint-Maria-Oudenhove Vossenholstraat', latitude=50.821762, longitude=3.789341, routes=[]}
Stop with no routes: Stop{stopId='DELIJN-217006', name='Opwijk Station', latitude=50.974523, longitude=4.187328, routes=[]}
Stop with no routes: Stop{stopId='DELIJN-217011', name='Ninove Station perron 5', latitude=50.839167, longitude=4.025581, routes=[]}
Stop with no routes: Stop{stopId='SNCB-S8821147', name='Mortsel', latitude=51.18296, longitude=4.448435, routes=[]}
Stop with no routes: Stop{stopId='DELIJN-217025', name='Lebbeke Woonzorgcentrum', latitude=50.996102, longitude=4.127388, routes=[]}
Stop with no routes: Stop{stopId='DELIJN-207740', name='Lebbeke Baasrode-Zuid Station', latitude=51.019276, longitude=4.152913, routes=[]}
Stop with no routes: Stop{stopId='SNCB-S8894235', name='Zele', latitude=51.07325, longitude=4.042001, routes=[]}
Stop with no routes: Stop{stopId='DELIJN-207731', name='Denderbelle Hogebrug', latitude=51.00632, longitude=4.090556, routes=[]}
Stop with no routes: Stop{stopId='DELIJN-207729', name='Lebbeke Station', latitude=51.00506, longitude=4.133796, routes=[]}
Stop with no routes: Stop{stopId='DELIJN-207721', name='Lebbeke Rooien', latitude=50.978824, longitude=4.112143, routes=[]}
Stop with no routes: Stop{stopId='DELIJN-207728', name='Lebbeke D'Helst', latitude=50.985356, longitude=4.138508, routes=[]}
Stop with no routes: Stop{stopId='SNCB-S8884855', name='Péruwelz', latitude=50.5137, longitude=3.592777, routes=[]}
Stop with no routes: Stop{stopId='DELIJN-207795', name='Ronse Hullebroekstraat', latitude=50.735741, longitude=3.614239, routes=[]}
Stop with no routes: Stop{stopId='DELIJN-207798', name='Ronse Ooststraat', latitude=50.743942, longitude=3.626047, routes=[]}
Stop with no routes: Stop{stopId='DELIJN-207780', name='Ronse H.Consciencestraat', latitude=50.742384, longitude=3.615282, routes=[]}
Stop with no routes: Stop{stopId='SNCB-S8894201', name='Lokeren', latitude=51.10806, longitude=3.987794, routes=[]}
Stop with no routes: Stop{stopId='SNCB-S8884889', name='Callenelle', latitude=50.52736, longitude=3.526178, routes=[]}
Stop with no routes: Stop{stopId='DELIJN-207718', name='Lebbeke Heizijde Station', latitude=50.990419, longitude=4.155829, routes=[]}
Stop with no routes: Stop{stopId='DELIJN-207713', name='Opstal Meir', latitude=50.996787, longitude=4.182342, routes=[]}
Stop with no routes: Stop{stopId='SNCB-S8811916', name='Bruxelles-Schuman', latitude=50.84328, longitude=4.380725, routes=[]}
Stop with no routes: Stop{stopId='DELIJN-207716', name='Opstal Broekstraat', latitude=50.996007, longitude=4.176494, routes=[]}
Stop with no routes: Stop{stopId='DELIJN-207702', name='Buggenhout Genthof Mandekenstraat', latitude=51.025959, longitude=4.167136, routes=[]}
Stop with no routes: Stop{stopId='DELIJN-207700', name='Opwijk Ravensveld', latitude=50.978269, longitude=4.178316, routes=[]}
Stop with no routes: Stop{stopId='DELIJN-207706', name='Opdorp Muldersweg', latitude=51.031403, longitude=4.225333, routes=[]}
Stop with no routes: Stop{stopId='DELIJN-207703', name='Buggenhout Genthof Beukenstraat', latitude=51.021316, longitude=4.173778, routes=[]}
Stop with no routes: Stop{stopId='SNCB-8863404_1', name='Andenne', latitude=50.49677, longitude=5.094701, routes=[]}
Stop with no routes: Stop{stopId='SNCB-8863404_2', name='Andenne', latitude=50.49677, longitude=5.094701, routes=[]}
Stop with no routes: Stop{stopId='SNCB-8842663_1', name='Esneux', latitude=50.53056, longitude=5.572567, routes=[]}
Stop with no routes: Stop{stopId='SNCB-8842663_2', name='Esneux', latitude=50.53056, longitude=5.572567, routes=[]}
Stop with no routes: Stop{stopId='STIB-7670125', name='1 - Chaussée de Mons', latitude=50.820538, longitude=4.293523, routes=[]}
Stop with no routes: Stop{stopId='SNCB-8885001_A', name='Tournai', latitude=50.61313, longitude=3.39694, routes=[]}
Stop with no routes: Stop{stopId='SNCB-S8811825', name='Court-Saint-Etienne', latitude=50.64557, longitude=4.56582, routes=[]}
Stop with no routes: Stop{stopId='SNCB-8885001_2', name='Tournai', latitude=50.61313, longitude=3.39694, routes=[]}
Stop with no routes: Stop{stopId='SNCB-8885001_3', name='Tournai', latitude=50.61313, longitude=3.39694, routes=[]}
Stop with no routes: Stop{stopId='SNCB-8885001_4', name='Tournai', latitude=50.61313, longitude=3.39694, routes=[]}
Stop with no routes: Stop{stopId='SNCB-8885001_5', name='Tournai', latitude=50.61313, longitude=3.39694, routes=[]}
Stop with no routes: Stop{stopId='SNCB-8885001_1', name='Tournai', latitude=50.61313, longitude=3.39694, routes=[]}
Stop with no routes: Stop{stopId='SNCB-S8845203', name='Trois-Ponts', latitude=50.36822, longitude=5.873579, routes=[]}
Stop with no routes: Stop{stopId='SNCB-S8821238', name='Mortsel-Oude God', latitude=51.17125, longitude=4.455737, routes=[]}
Stop with no routes: Stop{stopId='STIB-0250336', name='3 - Avenue Louis Dehoux', latitude=50.813331, longitude=4.422501, routes=[]}
Stop with no routes: Stop{stopId='SNCB-S8821246', name='Mortsel-Liersesteenweg', latitude=51.16903, longitude=4.468841, routes=[]}
Stop with no routes: Stop{stopId='SNCB-8884319_1', name='Boussu', latitude=50.43638, longitude=3.797027, routes=[]}
Stop with no routes: Stop{stopId='SNCB-S8845229', name='Coo', latitude=50.39113, longitude=5.880474, routes=[]}
Stop with no routes: Stop{stopId='SNCB-8811528_4', name='Genval', latitude=50.7257, longitude=4.514834, routes=[]}
Stop with no routes: Stop{stopId='SNCB-8811528_1', name='Genval', latitude=50.7257, longitude=4.514834, routes=[]}
Stop with no routes: Stop{stopId='DELIJN-207864', name='Sint-Lievens-Esse Europaweg', latitude=50.856383, longitude=3.857514, routes=[]}
Stop with no routes: Stop{stopId='DELIJN-207869', name='Grimminge Keistraat', latitude=50.785051, longitude=3.946054, routes=[]}
Stop with no routes: Stop{stopId='DELIJN-207884', name='Dendermonde Wissenstraat', latitude=51.027806, longitude=4.141083, routes=[]}
Stop with no routes: Stop{stopId='DELIJN-207885', name='Dendermonde Geerstraat', latitude=51.023443, longitude=4.148484, routes=[]}
Stop with no routes: Stop{stopId='SNCB-8843406_5', name='Statte', latitude=50.52828, longitude=5.21968, routes=[]}
Stop with no routes: Stop{stopId='SNCB-8843406_6', name='Statte', latitude=50.52828, longitude=5.21968, routes=[]}
Stop with no routes: Stop{stopId='SNCB-8871175_1', name='Jamioulx', latitude=50.3529, longitude=4.41129, routes=[]}
Stop with no routes: Stop{stopId='DELIJN-506229', name='Nieuwmunster Lekkerbek', latitude=51.288768, longitude=3.066045, routes=[]}
Stop with no routes: Stop{stopId='SNCB-8871175_2', name='Jamioulx', latitude=50.3529, longitude=4.41129, routes=[]}
Stop with no routes: Stop{stopId='SNCB-8843406_7', name='Statte', latitude=50.52828, longitude=5.21968, routes=[]}
Stop with no routes: Stop{stopId='SNCB-8843406_8', name='Statte', latitude=50.52828, longitude=5.21968, routes=[]}
Stop with no routes: Stop{stopId='DELIJN-506186', name='Lapscheure Kerk', latitude=51.278213, longitude=3.356151, routes=[]}
Stop with no routes: Stop{stopId='SNCB-S8811940', name='Anderlecht', latitude=50.8179, longitude=4.2918, routes=[]}
Stop with no routes: Stop{stopId='DELIJN-506187', name='Lapscheure Noorwegen', latitude=51.281703, longitude=3.350966, routes=[]}
Stop with no routes: Stop{stopId='DELIJN-301065', name='Webbekom Kerk', latitude=50.972862, longitude=5.070949, routes=[]}
Stop with no routes: Stop{stopId='SNCB-8811767_2', name='Florival', latitude=50.7615, longitude=4.65387, routes=[]}
Stop with no routes: Stop{stopId='SNCB-S8821311', name='Kontich-Lint', latitude=51.13403, longitude=4.476358, routes=[]}
Stop with no routes: Stop{stopId='STIB-0250436', name='4 - Avenue Louis Dehoux', latitude=50.813385, longitude=4.422416, routes=[]}
Stop with no routes: Stop{stopId='SNCB-8811767_1', name='Florival', latitude=50.7615, longitude=4.65387, routes=[]}
Stop with no routes: Stop{stopId='DELIJN-521751', name='Knokke Station perron B3', latitude=51.340738, longitude=3.285119, routes=[]}
Stop with no routes: Stop{stopId='SNCB-S8821337', name='Hove', latitude=51.15412, longitude=4.465158, routes=[]}
Stop with no routes: Stop{stopId='STIB-7670225', name='2 - Chaussée de Mons', latitude=50.821734, longitude=4.294287, routes=[]}
Stop with no routes: Stop{stopId='SNCB-S8811270', name='Veltem', latitude=50.90052, longitude=4.63352, routes=[]}
Stop with no routes: Stop{stopId='SNCB-S8811262', name='Erps-Kwerps', latitude=50.89651, longitude=4.585, routes=[]}
Stop with no routes: Stop{stopId='SNCB-S8811288', name='Herent', latitude=50.90353, longitude=4.67219, routes=[]}
Stop with no routes: Stop{stopId='SNCB-8832573_1', name='Overpelt', latitude=51.21562, longitude=5.422756, routes=[]}
Stop with no routes: Stop{stopId='DELIJN-535831', name='Bossuit Doornikstw.  Hoek', latitude=50.743467, longitude=3.398625, routes=[]}
Stop with no routes: Stop{stopId='DELIJN-535809', name='Otegem Ellendedreef', latitude=50.824613, longitude=3.406391, routes=[]}
Stop with no routes: Stop{stopId='STIB-0250536', name='5 - Avenue E.Van Nieuwenhuyse', latitude=50.812954, longitude=4.421422, routes=[]}
Stop with no routes: Stop{stopId='DELIJN-535826', name='Izegem De Krekel', latitude=50.917439, longitude=3.207152, routes=[]}
Stop with no routes: Stop{stopId='DELIJN-305551', name='Leefdaal Woutersstraat', latitude=50.852336, longitude=4.568114, routes=[]}
Stop with no routes: Stop{stopId='SNCB-S8811213', name='Diegem', latitude=50.89048, longitude=4.442773, routes=[]}
Stop with no routes: Stop{stopId='SNCB-S8811205', name='Delta', latitude=50.81836, longitude=4.403871, routes=[]}
Stop with no routes: Stop{stopId='SNCB-8811130_1', name='Haren-Sud', latitude=50.88969, longitude=4.415358, routes=[]}
Stop with no routes: Stop{stopId='SNCB-8811130_4', name='Haren-Sud', latitude=50.88969, longitude=4.415358, routes=[]}
Stop with no routes: Stop{stopId='SNCB-S8811221', name='Zaventem', latitude=50.88572, longitude=4.46989, routes=[]}
Stop with no routes: Stop{stopId='SNCB-S8811254', name='Kortenberg', latitude=50.89307, longitude=4.5433, routes=[]}
Stop with no routes: Stop{stopId='SNCB-S8811247', name='Nossegem', latitude=50.88331, longitude=4.50611, routes=[]}
Stop with no routes: Stop{stopId='DELIJN-403963', name='Schulen Leemkuilstraat', latitude=50.956943, longitude=5.19344, routes=[]}
Stop with no routes: Stop{stopId='DELIJN-403968', name='Schulen Reyerstraat I', latitude=50.959744, longitude=5.189909, routes=[]}
Stop with no routes: Stop{stopId='DELIJN-403972', name='Schulen Sint-Jorislaan', latitude=50.952261, longitude=5.195424, routes=[]}
Stop with no routes: Stop{stopId='SNCB-S8884319', name='Boussu', latitude=50.43638, longitude=3.797027, routes=[]}
Stop with no routes: Stop{stopId='DELIJN-403959', name='Schulen Grotestraat', latitude=50.949371, longitude=5.197439, routes=[]}
Stop with no routes: Stop{stopId='SNCB-8895638_1', name='Tollembeek', latitude=50.73552, longitude=3.992826, routes=[]}
Stop with no routes: Stop{stopId='SNCB-8895638_2', name='Tollembeek', latitude=50.73552, longitude=3.992826, routes=[]}
Stop with no routes: Stop{stopId='SNCB-S8884327', name='Hainin', latitude=50.42802, longitude=3.766893, routes=[]}
Stop with no routes: Stop{stopId='DELIJN-403954', name='Schakkebroek Vinkenstraat', latitude=50.900899, longitude=5.193293, routes=[]}
Stop with no routes: Stop{stopId='SNCB-8861200_1', name='Gembloux', latitude=50.57048, longitude=4.691497, routes=[]}
Stop with no routes: Stop{stopId='SNCB-8861200_2', name='Gembloux', latitude=50.57048, longitude=4.691497, routes=[]}
Stop with no routes: Stop{stopId='SNCB-8861200_3', name='Gembloux', latitude=50.57048, longitude=4.691497, routes=[]}
Stop with no routes: Stop{stopId='SNCB-8861200_4', name='Gembloux', latitude=50.57048, longitude=4.691497, routes=[]}
Stop with no routes: Stop{stopId='SNCB-8861200_5', name='Gembloux', latitude=50.57048, longitude=4.691497, routes=[]}
Stop with no routes: Stop{stopId='DELIJN-403905', name='Berbroek Centrum', latitude=50.950404, longitude=5.207921, routes=[]}
Stop with no routes: Stop{stopId='DELIJN-403906', name='Berbroek Heidestraat I', latitude=50.950999, longitude=5.218158, routes=[]}
Stop with no routes: Stop{stopId='DELIJN-403908', name='Berbroek Lindestraat', latitude=50.948862, longitude=5.200846, routes=[]}
Stop with no routes: Stop{stopId='SNCB-8892254_2', name='Tielt', latitude=50.99084, longitude=3.33034, routes=[]}
Stop with no routes: Stop{stopId='DELIJN-403915', name='Berbroek Veiling', latitude=50.947698, longitude=5.218584, routes=[]}
Stop with no routes: Stop{stopId='SNCB-8892254_1', name='Tielt', latitude=50.99084, longitude=3.33034, routes=[]}
Stop with no routes: Stop{stopId='SNCB-8832334_1', name='Zonhoven', latitude=50.98956, longitude=5.348813, routes=[]}
Stop with no routes: Stop{stopId='DELIJN-109366', name='Puurs Sociaal Huis', latitude=51.073801, longitude=4.278923, routes=[]}
Stop with no routes: Stop{stopId='DELIJN-109352', name='Ramsel Hamerstraat', latitude=51.019695, longitude=4.823122, routes=[]}
Stop with no routes: Stop{stopId='SNCB-S8884335', name='Quiévrain', latitude=50.41011, longitude=3.68608, routes=[]}
Stop with no routes: Stop{stopId='DELIJN-403986', name='Herk-de-Stad Stevoortweg 3', latitude=50.925703, longitude=5.203396, routes=[]}
Stop with no routes: Stop{stopId='SNCB-S8884350', name='Thulin', latitude=50.42333, longitude=3.744708, routes=[]}
Stop with no routes: Stop{stopId='DELIJN-403998', name='Herk-de-Stad Vogelzangstraat', latitude=50.928326, longitude=5.195894, routes=[]}
Stop with no routes: Stop{stopId='SNCB-8871662_1', name='Solre-sur-Sambre', latitude=50.31264, longitude=4.15843, routes=[]}
Stop with no routes: Stop{stopId='SNCB-8871662_2', name='Solre-sur-Sambre', latitude=50.31264, longitude=4.15843, routes=[]}
Stop with no routes: Stop{stopId='DELIJN-305682', name='Halle-Booienhoven Café De Linde', latitude=50.838288, longitude=5.136516, routes=[]}
Stop with no routes: Stop{stopId='DELIJN-305675', name='Dormaal Kerk', latitude=50.811078, longitude=5.09994, routes=[]}
Stop with no routes: Stop{stopId='DELIJN-305677', name='Dormaal Kerkstraat', latitude=50.809336, longitude=5.101107, routes=[]}
Stop with no routes: Stop{stopId='SNCB-S8811304', name='Bruxelles-Luxembourg', latitude=50.83894, longitude=4.373676, routes=[]}
Stop with no routes: Stop{stopId='SNCB-8895877_2', name='Ede', latitude=50.91105, longitude=3.987525, routes=[]}
Stop with no routes: Stop{stopId='SNCB-8895877_1', name='Ede', latitude=50.91105, longitude=3.987525, routes=[]}
Stop with no routes: Stop{stopId='SNCB-8861440_3', name='Rhisnes', latitude=50.49935, longitude=4.80187, routes=[]}
Stop with no routes: Stop{stopId='SNCB-8861440_1', name='Rhisnes', latitude=50.49935, longitude=4.80187, routes=[]}
Stop with no routes: Stop{stopId='SNCB-8861440_2', name='Rhisnes', latitude=50.49935, longitude=4.80187, routes=[]}
Stop with no routes: Stop{stopId='SNCB-8892601_1', name='Audenarde', latitude=50.85012, longitude=3.600388, routes=[]}
Stop with no routes: Stop{stopId='SNCB-8892601_2', name='Audenarde', latitude=50.85012, longitude=3.600388, routes=[]}
Stop with no routes: Stop{stopId='SNCB-8892601_3', name='Audenarde', latitude=50.85012, longitude=3.600388, routes=[]}
Stop with no routes: Stop{stopId='SNCB-8812112_1', name='Mollem', latitude=50.93348, longitude=4.216967, routes=[]}
Stop with no routes: Stop{stopId='SNCB-8812112_2', name='Mollem', latitude=50.93348, longitude=4.216967, routes=[]}
Stop with no routes: Stop{stopId='SNCB-8892601_4', name='Audenarde', latitude=50.85012, longitude=3.600388, routes=[]}
Stop with no routes: Stop{stopId='SNCB-8892601_5', name='Audenarde', latitude=50.85012, longitude=3.600388, routes=[]}
Stop with no routes: Stop{stopId='DELIJN-109294', name='Morkhoven Station', latitude=51.124183, longitude=4.82581, routes=[]}
Stop with no routes: Stop{stopId='DELIJN-109295', name='Morkhoven Station', latitude=51.12441, longitude=4.825994, routes=[]}
Stop with no routes: Stop{stopId='DELIJN-109292', name='Noorderwijk Hoogton', latitude=51.130457, longitude=4.830668, routes=[]}
Stop with no routes: Stop{stopId='DELIJN-109293', name='Noorderwijk Hoogton', latitude=51.130486, longitude=4.830889, routes=[]}
Stop with no routes: Stop{stopId='DELIJN-109290', name='Noorderwijk Venheide', latitude=51.135074, longitude=4.834728, routes=[]}
Stop with no routes: Stop{stopId='DELIJN-109291', name='Noorderwijk Venheide', latitude=51.134667, longitude=4.834565, routes=[]}
Stop with no routes: Stop{stopId='DELIJN-109289', name='Noorderwijk Gemeentehuis', latitude=51.139898, longitude=4.839264, routes=[]}
Stop with no routes: Stop{stopId='DELIJN-109288', name='Noorderwijk Gemeentehuis', latitude=51.1401, longitude=4.839238, routes=[]}
Stop with no routes: Stop{stopId='DELIJN-109276', name='Herentals E. Claesstraat', latitude=51.172913, longitude=4.841103, routes=[]}
Stop with no routes: Stop{stopId='DELIJN-109298', name='Morkhoven Mispelaar', latitude=51.117396, longitude=4.815298, routes=[]}
Stop with no routes: Stop{stopId='DELIJN-109299', name='Morkhoven Mispelaar', latitude=51.117411, longitude=4.815521, routes=[]}
Stop with no routes: Stop{stopId='DELIJN-109296', name='Morkhoven Doornestraat', latitude=51.119856, longitude=4.819035, routes=[]}
Stop with no routes: Stop{stopId='DELIJN-109297', name='Morkhoven Doornestraat', latitude=51.119455, longitude=4.817893, routes=[]}
Stop with no routes: Stop{stopId='SNCB-8891033_2', name='Bruges-Saint-Pierre', latitude=51.22312, longitude=3.201796, routes=[]}
Stop with no routes: Stop{stopId='SNCB-8891033_1', name='Bruges-Saint-Pierre', latitude=51.22312, longitude=3.201796, routes=[]}
Stop with no routes: Stop{stopId='DELIJN-109236', name='Lichtaart Kapelhof', latitude=51.224358, longitude=4.90555, routes=[]}
Stop with no routes: Stop{stopId='DELIJN-109230', name='Lichtaart Station', latitude=51.224037, longitude=4.876653, routes=[]}
Stop with no routes: Stop{stopId='DELIJN-305730', name='Zoutleeuw Café De Hoofdzonde', latitude=50.850027, longitude=5.137817, routes=[]}
Stop with no routes: Stop{stopId='DELIJN-305736', name='Zoutleeuw Lindeweg', latitude=50.852285, longitude=5.132532, routes=[]}
Stop with no routes: Stop{stopId='DELIJN-305732', name='Zoutleeuw Pottekaasstraat', latitude=50.855867, longitude=5.125312, routes=[]}
Stop with no routes: Stop{stopId='SNCB-S8811411', name='Etterbeek', latitude=50.82219, longitude=4.389517, routes=[]}
Stop with no routes: Stop{stopId='SNCB-S8811403', name='Germoir', latitude=50.83, longitude=4.379445, routes=[]}
Stop with no routes: Stop{stopId='SNCB-S8811437', name='Boitsfort', latitude=50.7947, longitude=4.408114, routes=[]}
Stop with no routes: Stop{stopId='SNCB-S8811429', name='Watermael', latitude=50.80917, longitude=4.399885, routes=[]}
Stop with no routes: Stop{stopId='DELIJN-207333', name='Opdorp Veldstraat', latitude=51.023013, longitude=4.225366, routes=[]}
Stop with no routes: Stop{stopId='STIB-0260137', name='1 - Avenue Herrmann-Debroux', latitude=50.812123, longitude=4.428317, routes=[]}
Stop with no routes: Stop{stopId='SNCB-S8811445', name='Groenendaal', latitude=50.7661, longitude=4.44949, routes=[]}
Stop with no routes: Stop{stopId='SNCB-8873379_1', name='Cour-sur-Heure', latitude=50.30014, longitude=4.391492, routes=[]}
Stop with no routes: Stop{stopId='SNCB-8873379_2', name='Cour-sur-Heure', latitude=50.30014, longitude=4.391492, routes=[]}
Stop with no routes: Stop{stopId='SNCB-S8811460', name='Hoeilaart', latitude=50.76016, longitude=4.46741, routes=[]}
Stop with no routes: Stop{stopId='DELIJN-305714', name='Halle-Booienhoven Vinnestraat', latitude=50.825496, longitude=5.131058, routes=[]}
Stop with no routes: Stop{stopId='DELIJN-305711', name='Dormaal Tifany', latitude=50.802561, longitude=5.092647, routes=[]}
Stop with no routes: Stop{stopId='DELIJN-305712', name='Halle-Booienhoven Turlutstraat', latitude=50.834864, longitude=5.132517, routes=[]}
Stop with no routes: Stop{stopId='DELIJN-207363', name='Opdorp Houtenmolenstraat', latitude=51.027289, longitude=4.222821, routes=[]}
Stop with no routes: Stop{stopId='DELIJN-207365', name='Buggenhout Veerstraat', latitude=51.036379, longitude=4.193095, routes=[]}
Stop with no routes: Stop{stopId='SNCB-S8884541', name='Quaregnon', latitude=50.44983, longitude=3.856541, routes=[]}
Stop with no routes: Stop{stopId='SNCB-S8884566', name='Jemappes', latitude=50.45258, longitude=3.885583, routes=[]}
Stop with no routes: Stop{stopId='DELIJN-207422', name='Westrem Dorp', latitude=50.968939, longitude=3.862074, routes=[]}
Stop with no routes: Stop{stopId='DELIJN-207421', name='Westrem Westremdries', latitude=50.958549, longitude=3.86312, routes=[]}
Stop with no routes: Stop{stopId='DELIJN-207424', name='Massemen Strop', latitude=50.97404, longitude=3.863957, routes=[]}
Stop with no routes: Stop{stopId='SNCB-8895240_1', name='Balegem-Zuid', latitude=50.90051, longitude=3.80587, routes=[]}
Stop with no routes: Stop{stopId='SNCB-8895240_2', name='Balegem-Zuid', latitude=50.90051, longitude=3.80587, routes=[]}
Stop with no routes: Stop{stopId='DELIJN-109104', name='Berlaar De Klets', latitude=51.121576, longitude=4.627834, routes=[]}
Stop with no routes: Stop{stopId='SNCB-8895000_6', name='Alost', latitude=50.94282, longitude=4.039649, routes=[]}
Stop with no routes: Stop{stopId='SNCB-8895000_7', name='Alost', latitude=50.94282, longitude=4.039649, routes=[]}
Stop with no routes: Stop{stopId='SNCB-8895000_1', name='Alost', latitude=50.94282, longitude=4.039649, routes=[]}
Stop with no routes: Stop{stopId='SNCB-8895000_4', name='Alost', latitude=50.94282, longitude=4.039649, routes=[]}
Stop with no routes: Stop{stopId='SNCB-8895000_5', name='Alost', latitude=50.94282, longitude=4.039649, routes=[]}
Stop with no routes: Stop{stopId='SNCB-8895000_2', name='Alost', latitude=50.94282, longitude=4.039649, routes=[]}
Stop with no routes: Stop{stopId='SNCB-8895000_3', name='Alost', latitude=50.94282, longitude=4.039649, routes=[]}
Stop with no routes: Stop{stopId='SNCB-8863503_3', name='Dinant', latitude=50.26072, longitude=4.90818, routes=[]}
Stop with no routes: Stop{stopId='SNCB-8863503_1', name='Dinant', latitude=50.26072, longitude=4.90818, routes=[]}
Stop with no routes: Stop{stopId='SNCB-8863503_2', name='Dinant', latitude=50.26072, longitude=4.90818, routes=[]}
Stop with no routes: Stop{stopId='DELIJN-535961', name='Reningelst Bettedreef', latitude=50.821514, longitude=2.755719, routes=[]}
Stop with no routes: Stop{stopId='DELIJN-535962', name='Dranouter Baroeneput', latitude=50.76739, longitude=2.787276, routes=[]}
Stop with no routes: Stop{stopId='DELIJN-535960', name='Geluveld Polderhoek', latitude=50.840139, longitude=3.000869, routes=[]}
Stop with no routes: Stop{stopId='DELIJN-535958', name='Waasten Markt', latitude=50.752243, longitude=2.947111, routes=[]}
Stop with no routes: Stop{stopId='DELIJN-535959', name='Ieper Autokeuring', latitude=50.879889, longitude=2.878991, routes=[]}
Stop with no routes: Stop{stopId='DELIJN-535952', name='Dikkebus Kerk', latitude=50.819698, longitude=2.832163, routes=[]}
Stop with no routes: Stop{stopId='DELIJN-535953', name='Ieper Lindendreef', latitude=50.859652, longitude=2.896702, routes=[]}
Stop with no routes: Stop{stopId='DELIJN-535950', name='Passendale Grote Roeselarestraat', latitude=50.908068, longitude=3.020557, routes=[]}
Stop with no routes: Stop{stopId='DELIJN-535951', name='Passendale PC De Craeye', latitude=50.900456, longitude=3.023704, routes=[]}
Stop with no routes: Stop{stopId='SNCB-8811429_4', name='Watermael', latitude=50.80917, longitude=4.399885, routes=[]}
Stop with no routes: Stop{stopId='DELIJN-535956', name='Vlamertinge Karmel', latitude=50.838119, longitude=2.85586, routes=[]}
Stop with no routes: Stop{stopId='SNCB-8811429_1', name='Watermael', latitude=50.80917, longitude=4.399885, routes=[]}
Stop with no routes: Stop{stopId='DELIJN-535957', name='Kemmel De Warande', latitude=50.780985, longitude=2.823165, routes=[]}
Stop with no routes: Stop{stopId='DELIJN-535954', name='Geluveld Dorp', latitude=50.834335, longitude=2.994596, routes=[]}
Stop with no routes: Stop{stopId='SNCB-8822475_1', name='Boortmeerbeek', latitude=50.98185, longitude=4.5739, routes=[]}
Stop with no routes: Stop{stopId='SNCB-8822475_2', name='Boortmeerbeek', latitude=50.98185, longitude=4.5739, routes=[]}
Stop with no routes: Stop{stopId='DELIJN-535972', name='Proven Speelhof', latitude=50.899505, longitude=2.642564, routes=[]}
Stop with no routes: Stop{stopId='DELIJN-535971', name='Veurne Furnevent', latitude=51.067388, longitude=2.680049, routes=[]}
Stop with no routes: Stop{stopId='SNCB-S8811510', name='La Hulpe', latitude=50.73796, longitude=4.49706, routes=[]}
Stop with no routes: Stop{stopId='STIB-0260237', name='2 - Avenue Herrmann-Debroux', latitude=50.812555, longitude=4.428317, routes=[]}
Stop with no routes: Stop{stopId='DELIJN-305894', name='Schaffen Rozenlaan', latitude=50.995856, longitude=5.074039, routes=[]}
Stop with no routes: Stop{stopId='DELIJN-535949', name='Beselare Keiberg', latitude=50.865831, longitude=3.036589, routes=[]}
Stop with no routes: Stop{stopId='DELIJN-535947', name='Passendale Oude Kaasmakerij', latitude=50.89322, longitude=2.986903, routes=[]}
Stop with no routes: Stop{stopId='DELIJN-535948', name='Zandvoorde Basseville', latitude=50.814612, longitude=2.970134, routes=[]}
Stop with no routes: Stop{stopId='DELIJN-535941', name='De Panne Duinenzee', latitude=51.094862, longitude=2.57008, routes=[]}
Stop with no routes: Stop{stopId='DELIJN-535942', name='Diksmuide De Ijzerhoeve', latitude=51.024016, longitude=2.84358, routes=[]}
Stop with no routes: Stop{stopId='DELIJN-535940', name='Ieper Zwembad', latitude=50.844912, longitude=2.893713, routes=[]}
Stop with no routes: Stop{stopId='DELIJN-535946', name='Ieper VDAB', latitude=50.867454, longitude=2.88411, routes=[]}
Stop with no routes: Stop{stopId='DELIJN-535943', name='Stavele Westsluishoek', latitude=50.927366, longitude=2.654939, routes=[]}
Stop with no routes: Stop{stopId='SNCB-S8811536', name='Rixensart', latitude=50.71141, longitude=4.53286, routes=[]}
Stop with no routes: Stop{stopId='DELIJN-535938', name='Watou Witte Huizen', latitude=50.84837, longitude=2.621615, routes=[]}
Stop with no routes: Stop{stopId='DELIJN-535939', name='Werken Sint-Pieterkruisstraat', latitude=51.048761, longitude=2.9876, routes=[]}
Stop with no routes: Stop{stopId='DELIJN-535936', name='Diksmuide Damprémystraat', latitude=51.037135, longitude=2.872286, routes=[]}
Stop with no routes: Stop{stopId='DELIJN-535937', name='Poperinge Molenwaldreef', latitude=50.8474, longitude=2.728898, routes=[]}
Stop with no routes: Stop{stopId='DELIJN-535931', name='Oedelem Danegem', latitude=51.181743, longitude=3.370704, routes=[]}
Stop with no routes: Stop{stopId='DELIJN-535934', name='Nieuwkerke De Walletjes', latitude=50.740764, longitude=2.820187, routes=[]}
Stop with no routes: Stop{stopId='DELIJN-535935', name='Vladslo Einsdijkstraat', latitude=51.037899, longitude=2.930821, routes=[]}
Stop with no routes: Stop{stopId='DELIJN-535932', name='Ieper Waterpoortstraat', latitude=50.861828, longitude=2.885292, routes=[]}
Stop with no routes: Stop{stopId='DELIJN-535933', name='Dranouter Koudekotstraat', latitude=50.764774, longitude=2.774664, routes=[]}
Stop with no routes: Stop{stopId='SNCB-S8811528', name='Genval', latitude=50.7257, longitude=4.514834, routes=[]}
Stop with no routes: Stop{stopId='SNCB-S8811544', name='Profondsart', latitude=50.69965, longitude=4.545435, routes=[]}
Stop with no routes: Stop{stopId='DELIJN-305813', name='Boortmeerbeek Kerkhof', latitude=50.987898, longitude=4.57749, routes=[]}
Stop with no routes: Stop{stopId='DELIJN-403602', name='Eksel Handwijzer', latitude=51.137417, longitude=5.381673, routes=[]}
Stop with no routes: Stop{stopId='DELIJN-403613', name='Eksel Sint-Bernardusstraat', latitude=51.14137, longitude=5.365388, routes=[]}
Stop with no routes: Stop{stopId='SNCB-8882248_2', name='Carnières', latitude=50.44796, longitude=4.263829, routes=[]}
Stop with no routes: Stop{stopId='SNCB-8882248_1', name='Carnières', latitude=50.44796, longitude=4.263829, routes=[]}
Stop with no routes: Stop{stopId='SNCB-S8893567', name='Kwatrecht', latitude=50.99175, longitude=3.829591, routes=[]}
Stop with no routes: Stop{stopId='STIB-7720330', name='3 - Boulevard Jules Graindor', latitude=50.845237, longitude=4.318389, routes=[]}
Stop with no routes: Stop{stopId='SNCB-S8893583', name='Serskamp', latitude=50.9844, longitude=3.95936, routes=[]}
Stop with no routes: Stop{stopId='SNCB-8841004_3', name='Liège-Guillemins', latitude=50.62455, longitude=5.566698, routes=[]}
Stop with no routes: Stop{stopId='SNCB-8841004_4', name='Liège-Guillemins', latitude=50.62455, longitude=5.566698, routes=[]}
Stop with no routes: Stop{stopId='SNCB-8841004_5', name='Liège-Guillemins', latitude=50.62455, longitude=5.566698, routes=[]}
Stop with no routes: Stop{stopId='SNCB-8841004_6', name='Liège-Guillemins', latitude=50.62455, longitude=5.566698, routes=[]}
Stop with no routes: Stop{stopId='SNCB-8841004_7', name='Liège-Guillemins', latitude=50.62455, longitude=5.566698, routes=[]}
Stop with no routes: Stop{stopId='SNCB-8841004_8', name='Liège-Guillemins', latitude=50.62455, longitude=5.566698, routes=[]}
Stop with no routes: Stop{stopId='SNCB-8841004_9', name='Liège-Guillemins', latitude=50.62455, longitude=5.566698, routes=[]}
Stop with no routes: Stop{stopId='SNCB-8841004_1', name='Liège-Guillemins', latitude=50.62455, longitude=5.566698, routes=[]}
Stop with no routes: Stop{stopId='SNCB-8841004_2', name='Liège-Guillemins', latitude=50.62455, longitude=5.566698, routes=[]}
Stop with no routes: Stop{stopId='DELIJN-403699', name='Overpelt Magdaleentjeshof', latitude=51.214999, longitude=5.432425, routes=[]}
Stop with no routes: Stop{stopId='DELIJN-403692', name='Kiewit Kleuterschool', latitude=50.975002, longitude=5.387576, routes=[]}
Stop with no routes: Stop{stopId='STIB-0020707', name='7 - Rue de Loxum', latitude=50.846721, longitude=4.358344, routes=[]}
Stop with no routes: Stop{stopId='DELIJN-403662', name='Stal Sparrenbosweg', latitude=51.082721, longitude=5.27803, routes=[]}
Stop with no routes: Stop{stopId='SNCB-8843307_3', name='Huy', latitude=50.52724, longitude=5.23421, routes=[]}
Stop with no routes: Stop{stopId='SNCB-8843307_4', name='Huy', latitude=50.52724, longitude=5.23421, routes=[]}
Stop with no routes: Stop{stopId='SNCB-8843307_1', name='Huy', latitude=50.52724, longitude=5.23421, routes=[]}
Stop with no routes: Stop{stopId='SNCB-8843307_2', name='Huy', latitude=50.52724, longitude=5.23421, routes=[]}
Stop with no routes: Stop{stopId='STIB-0210132', name='1 - Avenue des Volontaires', latitude=50.827209, longitude=4.404094, routes=[]}
Stop with no routes: Stop{stopId='DELIJN-403647', name='Gingelom Steenweg', latitude=50.755373, longitude=5.13655, routes=[]}
Stop with no routes: Stop{stopId='DELIJN-403628', name='Hechtel Kamperbaan', latitude=51.125541, longitude=5.346126, routes=[]}
Stop with no routes: Stop{stopId='DELIJN-403625', name='Koersel Leliestraat', latitude=51.065463, longitude=5.276889, routes=[]}
Stop with no routes: Stop{stopId='DELIJN-305155', name='Tienen Viander en Bosch', latitude=50.811398, longitude=4.954591, routes=[]}
Stop with no routes: Stop{stopId='DELIJN-305154', name='Tienen Viander en Bosch', latitude=50.812188, longitude=4.955511, routes=[]}
Stop with no routes: Stop{stopId='DELIJN-403638', name='Stal Kampweg', latitude=51.075316, longitude=5.264269, routes=[]}
Stop with no routes: Stop{stopId='SNCB-S8844503', name='Welkenraedt', latitude=50.65971, longitude=5.975386, routes=[]}
Stop with no routes: Stop{stopId='STIB-0020607', name='6 - Putterie', latitude=50.845867, longitude=4.358373, routes=[]}
Stop with no routes: Stop{stopId='SNCB-8831005_A', name='Hasselt', latitude=50.93082, longitude=5.327631, routes=[]}
Stop with no routes: Stop{stopId='SNCB-S8844545', name='Dolhain-Gileppe', latitude=50.61625, longitude=5.93649, routes=[]}
Stop with no routes: Stop{stopId='SNCB-S8893526', name='Schoonaarde', latitude=51.00315, longitude=4.011095, routes=[]}
Stop with no routes: Stop{stopId='SNCB-S8893518', name='Oudegem', latitude=51.01523, longitude=4.064472, routes=[]}
Stop with no routes: Stop{stopId='SNCB-8813037_5', name='Bruxelles-Chapelle', latitude=50.84113, longitude=4.34787, routes=[]}
Stop with no routes: Stop{stopId='STIB-0440451', name='4 - Boulevard d'Anvers', latitude=50.857409, longitude=4.350204, routes=[]}
Stop with no routes: Stop{stopId='SNCB-8813037_6', name='Bruxelles-Chapelle', latitude=50.84113, longitude=4.34787, routes=[]}
Stop with no routes: Stop{stopId='SNCB-S8893534', name='Wichelen', latitude=51.00196, longitude=3.969195, routes=[]}
Stop with no routes: Stop{stopId='DELIJN-535437', name='Sijsele WZC De Stek', latitude=51.206522, longitude=3.321328, routes=[]}
Stop with no routes: Stop{stopId='SNCB-S8893542', name='Schellebelle', latitude=51.00315, longitude=3.92137, routes=[]}
Stop with no routes: Stop{stopId='SNCB-S8893559', name='Wetteren', latitude=51.0016, longitude=3.88188, routes=[]}
Stop with no routes: Stop{stopId='DELIJN-104986', name='Mol Gerststraat', latitude=51.174287, longitude=5.074476, routes=[]}
Stop with no routes: Stop{stopId='STIB-7720230', name='2 - Avenue Norbert Gille', latitude=50.842512, longitude=4.317185, routes=[]}
Stop with no routes: Stop{stopId='DELIJN-535390', name='Emelgem Reperstraat', latitude=50.930492, longitude=3.219493, routes=[]}
Stop with no routes: Stop{stopId='DELIJN-104974', name='Geel Schalieschuurstraat', latitude=51.175578, longitude=5.045583, routes=[]}
Stop with no routes: Stop{stopId='DELIJN-535387', name='Deerlijk Klijtstraat', latitude=50.835039, longitude=3.380831, routes=[]}
Stop with no routes: Stop{stopId='SNCB-8832565_1', name='Lommel', latitude=51.21156, longitude=5.312032, routes=[]}
Stop with no routes: Stop{stopId='SNCB-8863545_3', name='Yvoir', latitude=50.32084, longitude=4.87864, routes=[]}
Stop with no routes: Stop{stopId='SNCB-8871373_1', name='Gouy-lez-Piéton', latitude=50.49706, longitude=4.325126, routes=[]}
Stop with no routes: Stop{stopId='SNCB-8871373_2', name='Gouy-lez-Piéton', latitude=50.49706, longitude=4.325126, routes=[]}
Stop with no routes: Stop{stopId='SNCB-8863545_1', name='Yvoir', latitude=50.32084, longitude=4.87864, routes=[]}
Stop with no routes: Stop{stopId='SNCB-8863545_2', name='Yvoir', latitude=50.32084, longitude=4.87864, routes=[]}
Stop with no routes: Stop{stopId='DELIJN-104917', name='Bornem Mansbroekveld', latitude=51.093586, longitude=4.249875, routes=[]}
Stop with no routes: Stop{stopId='DELIJN-104909', name='Branst Reigerlaan', latitude=51.071557, longitude=4.207109, routes=[]}
Stop with no routes: Stop{stopId='STIB-0210232', name='2 - Boulevard Louis Schimdt', latitude=50.82951, longitude=4.40312, routes=[]}
Stop with no routes: Stop{stopId='DELIJN-403576', name='Munsterbilzen Groenklooster', latitude=50.888491, longitude=5.534231, routes=[]}
Stop with no routes: Stop{stopId='DELIJN-403570', name='Munsterbilzen Sint-Jozef', latitude=50.889385, longitude=5.523803, routes=[]}
Stop with no routes: Stop{stopId='DELIJN-403571', name='Munsterbilzen Basisschool', latitude=50.887206, longitude=5.524042, routes=[]}
Stop with no routes: Stop{stopId='DELIJN-403573', name='Munsterbilzen Scapulier', latitude=50.888101, longitude=5.52867, routes=[]}
Stop with no routes: Stop{stopId='DELIJN-104934', name='Branst Pastoor Peetersstraat', latitude=51.084221, longitude=4.203945, routes=[]}
Stop with no routes: Stop{stopId='DELIJN-104931', name='Weert Briel', latitude=51.088896, longitude=4.192691, routes=[]}
Stop with no routes: Stop{stopId='DELIJN-104932', name='Weert Kerk', latitude=51.10124, longitude=4.192942, routes=[]}
Stop with no routes: Stop{stopId='SNCB-8831005_1', name='Hasselt', latitude=50.93082, longitude=5.327631, routes=[]}
Stop with no routes: Stop{stopId='SNCB-8831005_2', name='Hasselt', latitude=50.93082, longitude=5.327631, routes=[]}
Stop with no routes: Stop{stopId='DELIJN-403548', name='Koersel Mouterijstraat', latitude=51.066949, longitude=5.283428, routes=[]}
Stop with no routes: Stop{stopId='SNCB-8831005_5', name='Hasselt', latitude=50.93082, longitude=5.327631, routes=[]}
Stop with no routes: Stop{stopId='SNCB-8831005_6', name='Hasselt', latitude=50.93082, longitude=5.327631, routes=[]}
Stop with no routes: Stop{stopId='SNCB-8831005_3', name='Hasselt', latitude=50.93082, longitude=5.327631, routes=[]}
Stop with no routes: Stop{stopId='SNCB-8831005_4', name='Hasselt', latitude=50.93082, longitude=5.327631, routes=[]}
Stop with no routes: Stop{stopId='SNCB-8831005_9', name='Hasselt', latitude=50.93082, longitude=5.327631, routes=[]}
Stop with no routes: Stop{stopId='SNCB-8831005_7', name='Hasselt', latitude=50.93082, longitude=5.327631, routes=[]}
Stop with no routes: Stop{stopId='SNCB-8831005_8', name='Hasselt', latitude=50.93082, longitude=5.327631, routes=[]}
Stop with no routes: Stop{stopId='DELIJN-104928', name='Bornem Luipegem', latitude=51.091909, longitude=4.205209, routes=[]}
Stop with no routes: Stop{stopId='DELIJN-104921', name='Bornem Houtenmolenstraat', latitude=51.096189, longitude=4.245729, routes=[]}
Stop with no routes: Stop{stopId='DELIJN-403525', name='Koersel Fonteintje', latitude=51.084152, longitude=5.324364, routes=[]}
Stop with no routes: Stop{stopId='DELIJN-403532', name='Koersel Middenstraat', latitude=51.070876, longitude=5.288082, routes=[]}
Stop with no routes: Stop{stopId='DELIJN-403512', name='Rapertingen Wegpolitie', latitude=50.903976, longitude=5.348166, routes=[]}
Stop with no routes: Stop{stopId='SNCB-S8844644', name='Hergenrath', latitude=50.71821, longitude=6.041336, routes=[]}
Stop with no routes: Stop{stopId='SNCB-S8844628', name='Eupen', latitude=50.63516, longitude=6.03711, routes=[]}
Stop with no routes: Stop{stopId='DELIJN-525900', name='Pollinkhove Burgweg', latitude=50.977733, longitude=2.727247, routes=[]}
Stop with no routes: Stop{stopId='STIB-0020507', name='5 - Rue Montagne du Parc', latitude=50.846029, longitude=4.359338, routes=[]}
Stop with no routes: Stop{stopId='DELIJN-403595', name='Hoeselt Heibrikzaal', latitude=50.854699, longitude=5.47807, routes=[]}
Stop with no routes: Stop{stopId='DELIJN-535319', name='Tielt WZC Deken Darras', latitude=50.999278, longitude=3.318842, routes=[]}
Stop with no routes: Stop{stopId='DELIJN-535310', name='Pittem De Krieke', latitude=50.981617, longitude=3.269026, routes=[]}
Stop with no routes: Stop{stopId='STIB-0440351', name='3 - Porte d'Anvers', latitude=50.8566, longitude=4.352633, routes=[]}
Stop with no routes: Stop{stopId='DELIJN-535338', name='Oostkamp Beukenpark', latitude=51.152593, longitude=3.238568, routes=[]}
Stop with no routes: Stop{stopId='STIB-0430950', name='9 - Manhattan center', latitude=50.85616, longitude=4.358101, routes=[]}
Stop with no routes: Stop{stopId='STIB-7720130', name='1 - Avenue Norbert Gille', latitude=50.842845, longitude=4.317781, routes=[]}
Stop with no routes: Stop{stopId='DELIJN-104861', name='Puurs Kleine Amer', latitude=51.081761, longitude=4.300146, routes=[]}
Stop with no routes: Stop{stopId='DELIJN-403850', name='Stal Kleineheidelaan', latitude=51.068735, longitude=5.236335, routes=[]}
Stop with no routes: Stop{stopId='DELIJN-403820', name='Stal Pastoor Raeymakersstraat', latitude=51.073554, longitude=5.25381, routes=[]}
Stop with no routes: Stop{stopId='DELIJN-403825', name='Heers Administratief Centrum', latitude=50.753085, longitude=5.295455, routes=[]}
Stop with no routes: Stop{stopId='DELIJN-403822', name='Mechelen-Bovelingen Egoven', latitude=50.748171, longitude=5.259661, routes=[]}
Stop with no routes: Stop{stopId='DELIJN-403830', name='Banneux Pretland', latitude=50.950862, longitude=5.337118, routes=[]}
Stop with no routes: Stop{stopId='DELIJN-403803', name='Vechmaal Langstraat', latitude=50.762984, longitude=5.3756, routes=[]}
Stop with no routes: Stop{stopId='DELIJN-403800', name='Vechmaal Kleinveldjes', latitude=50.763035, longitude=5.382306, routes=[]}
Stop with no routes: Stop{stopId='DELIJN-104821', name='Bonheiden Rusthuis Den Olm', latitude=51.020358, longitude=4.542266, routes=[]}
Stop with no routes: Stop{stopId='DELIJN-403811', name='Heers Voetbalveld', latitude=50.751954, longitude=5.306143, routes=[]}
Stop with no routes: Stop{stopId='SNCB-8814357_1', name='Lot', latitude=50.76636, longitude=4.2737, routes=[]}
Stop with no routes: Stop{stopId='SNCB-8814357_2', name='Lot', latitude=50.76636, longitude=4.2737, routes=[]}
Stop with no routes: Stop{stopId='SNCB-8814357_3', name='Lot', latitude=50.76636, longitude=4.2737, routes=[]}
Stop with no routes: Stop{stopId='DELIJN-104818', name='Geel Leeks', latitude=51.139877, longitude=4.950308, routes=[]}
Stop with no routes: Stop{stopId='DELIJN-104819', name='Brecht Markthalte', latitude=51.349351, longitude=4.698643, routes=[]}
Stop with no routes: Stop{stopId='DELIJN-403886', name='Koersel Casino', latitude=51.071211, longitude=5.217212, routes=[]}
Stop with no routes: Stop{stopId='DELIJN-403884', name='Diepenbeek Kalverstraat', latitude=50.90269, longitude=5.395847, routes=[]}
Stop with no routes: Stop{stopId='DELIJN-403885', name='Diepenbeek Keizerstraat', latitude=50.907994, longitude=5.401728, routes=[]}
Stop with no routes: Stop{stopId='DELIJN-403880', name='Diepenbeek Sint-Rochusstraat', latitude=50.904964, longitude=5.411156, routes=[]}
Stop with no routes: Stop{stopId='DELIJN-403898', name='Beverlo Kapelanijstraat', latitude=51.088792, longitude=5.217118, routes=[]}
Stop with no routes: Stop{stopId='DELIJN-403895', name='Diepenbeek Pampertstraat II', latitude=50.917542, longitude=5.385736, routes=[]}
Stop with no routes: Stop{stopId='DELIJN-403890', name='Diepenbeek Laag Keizel', latitude=50.911613, longitude=5.391772, routes=[]}
Stop with no routes: Stop{stopId='DELIJN-403894', name='Diepenbeek Pampertstraat', latitude=50.913736, longitude=5.385531, routes=[]}
Stop with no routes: Stop{stopId='DELIJN-403875', name='Klein-Gelmen Groeneschild', latitude=50.764076, longitude=5.284276, routes=[]}
Stop with no routes: Stop{stopId='DELIJN-403874', name='Klein-Gelmen Daalstraat', latitude=50.768111, longitude=5.278508, routes=[]}
Stop with no routes: Stop{stopId='SNCB-8845229_1', name='Coo', latitude=50.39113, longitude=5.880474, routes=[]}
Stop with no routes: Stop{stopId='STIB-0020407', name='3 - Rue des Colonies', latitude=50.846236, longitude=4.358926, routes=[]}
Stop with no routes: Stop{stopId='SNCB-8841731_2', name='Glons', latitude=50.75043, longitude=5.535429, routes=[]}
Stop with no routes: Stop{stopId='SNCB-S8893708', name='Eeklo', latitude=51.18133, longitude=3.574518, routes=[]}
Stop with no routes: Stop{stopId='SNCB-8811221_4', name='Zaventem', latitude=50.88572, longitude=4.46989, routes=[]}
Stop with no routes: Stop{stopId='SNCB-8811221_1', name='Zaventem', latitude=50.88572, longitude=4.46989, routes=[]}
Stop with no routes: Stop{stopId='DELIJN-535676', name='Beernem Lijsterhoek', latitude=51.156208, longitude=3.321754, routes=[]}
Stop with no routes: Stop{stopId='STIB-0440651', name='6 - Parc Maximilien', latitude=50.857957, longitude=4.350246, routes=[]}
Stop with no routes: Stop{stopId='DELIJN-104783', name='Heist-op-den-Berg Van Kerckhovenstraat', latitude=51.076293, longitude=4.701596, routes=[]}
Stop with no routes: Stop{stopId='DELIJN-104784', name='Heist-op-den-Berg Mechelsesteenweg', latitude=51.074344, longitude=4.706493, routes=[]}
Stop with no routes: Stop{stopId='DELIJN-104781', name='Heist-op-den-Berg Oude Liersebaan', latitude=51.077854, longitude=4.694574, routes=[]}
Stop with no routes: Stop{stopId='DELIJN-511694', name='Ruddervoorde Kringwinkel', latitude=51.102428, longitude=3.214635, routes=[]}
Stop with no routes: Stop{stopId='DELIJN-104759', name='Berlaar Brandestraat', latitude=51.098752, longitude=4.643245, routes=[]}
Stop with no routes: Stop{stopId='DELIJN-104756', name='Berlaar Sportcentrum Doelvelden', latitude=51.10776, longitude=4.638502, routes=[]}
Stop with no routes: Stop{stopId='DELIJN-403720', name='Stal Landerhuys', latitude=51.081572, longitude=5.268248, routes=[]}
Stop with no routes: Stop{stopId='DELIJN-104757', name='Berlaar Welvaartstraat', latitude=51.104998, longitude=4.64033, routes=[]}
Stop with no routes: Stop{stopId='DELIJN-403726', name='Mechelen-Bovelingen Rusthuis', latitude=50.73729, longitude=5.261837, routes=[]}
Stop with no routes: Stop{stopId='DELIJN-403724', name='Mechelen-Bovelingen Monument', latitude=50.741406, longitude=5.263284, routes=[]}
Stop with no routes: Stop{stopId='DELIJN-104747', name='Berlaar Havikstraat', latitude=51.112971, longitude=4.648037, routes=[]}
Stop with no routes: Stop{stopId='DELIJN-104746', name='Berlaar Meistraat', latitude=51.112412, longitude=4.652102, routes=[]}
Stop with no routes: Stop{stopId='DELIJN-104741', name='Berlaar Begraafplaats Hemelshoek', latitude=51.09531, longitude=4.649398, routes=[]}
Stop with no routes: Stop{stopId='DELIJN-403735', name='Gutschoven Bekstraat 40', latitude=50.780267, longitude=5.316647, routes=[]}
Stop with no routes: Stop{stopId='DELIJN-104742', name='Berlaar Laar', latitude=51.108297, longitude=4.654087, routes=[]}
Stop with no routes: Stop{stopId='DELIJN-403708', name='Stal Kleuterstraat', latitude=51.083774, longitude=5.27143, routes=[]}
Stop with no routes: Stop{stopId='DELIJN-403700', name='Heers Autoveiligheid', latitude=50.739427, longitude=5.32387, routes=[]}
Stop with no routes: Stop{stopId='DELIJN-104778', name='Itegem Isschotweg', latitude=51.084318, longitude=4.680292, routes=[]}
Stop with no routes: Stop{stopId='DELIJN-104773', name='Berlaar Heimolenstraat', latitude=51.083935, longitude=4.671533, routes=[]}
Stop with no routes: Stop{stopId='DELIJN-104771', name='Berlaar Sint-Rumoldusstraat', latitude=51.082526, longitude=4.663341, routes=[]}
Stop with no routes: Stop{stopId='SNCB-8821451_1', name='Kijkuit', latitude=51.37866, longitude=4.467318, routes=[]}
Stop with no routes: Stop{stopId='SNCB-8821451_2', name='Kijkuit', latitude=51.37866, longitude=4.467318, routes=[]}
Stop with no routes: Stop{stopId='DELIJN-403719', name='Mechelen-Bovelingen Dreefstraat', latitude=50.741246, longitude=5.257647, routes=[]}
Stop with no routes: Stop{stopId='DELIJN-104768', name='Berlaar Leemputten', latitude=51.081057, longitude=4.658547, routes=[]}
Stop with no routes: Stop{stopId='DELIJN-104762', name='Berlaar Huttestraat', latitude=51.091435, longitude=4.64366, routes=[]}
Stop with no routes: Stop{stopId='SNCB-8814118_1', name='Forest-Est', latitude=50.8102, longitude=4.32094, routes=[]}
Stop with no routes: Stop{stopId='SNCB-8814118_2', name='Forest-Est', latitude=50.8102, longitude=4.32094, routes=[]}
Stop with no routes: Stop{stopId='DELIJN-104711', name='Berlaar Gestel Kerk', latitude=51.12789, longitude=4.674286, routes=[]}
Stop with no routes: Stop{stopId='DELIJN-104713', name='Berlaar Gestelhof', latitude=51.126394, longitude=4.663816, routes=[]}
Stop with no routes: Stop{stopId='SNCB-8886553_1', name='Houraing', latitude=50.70306, longitude=3.835174, routes=[]}
Stop with no routes: Stop{stopId='SNCB-8886553_2', name='Houraing', latitude=50.70306, longitude=3.835174, routes=[]}
Stop with no routes: Stop{stopId='SNCB-8833308_4', name='Tirlemont', latitude=50.80802, longitude=4.92581, routes=[]}
Stop with no routes: Stop{stopId='DELIJN-104736', name='Berlaar Rusthuis', latitude=51.12006, longitude=4.657134, routes=[]}
Stop with no routes: Stop{stopId='SNCB-8833308_1', name='Tirlemont', latitude=50.80802, longitude=4.92581, routes=[]}
Stop with no routes: Stop{stopId='DELIJN-104738', name='Berlaar Doelstraat', latitude=51.115462, longitude=4.653928, routes=[]}
Stop with no routes: Stop{stopId='DELIJN-104739', name='Berlaar Lijsterstraat', latitude=51.112435, longitude=4.639734, routes=[]}
Stop with no routes: Stop{stopId='SNCB-8815040_2', name='Bruxelles-Ouest', latitude=50.84856, longitude=4.32104, routes=[]}
Stop with no routes: Stop{stopId='SNCB-8815040_1', name='Bruxelles-Ouest', latitude=50.84856, longitude=4.32104, routes=[]}
Stop with no routes: Stop{stopId='DELIJN-305481', name='Breendonk Molenheide', latitude=51.043016, longitude=4.322154, routes=[]}
Stop with no routes: Stop{stopId='DELIJN-403788', name='Rukkelingen-Loon Sweetstraat', latitude=50.727102, longitude=5.254146, routes=[]}
Stop with no routes: Stop{stopId='DELIJN-305476', name='Tienen Potaardeweg', latitude=50.815589, longitude=4.956136, routes=[]}
Stop with no routes: Stop{stopId='DELIJN-305475', name='Tienen Potaardeweg', latitude=50.815476, longitude=4.956513, routes=[]}
Stop with no routes: Stop{stopId='DELIJN-403798', name='Vechmaal Kerk', latitude=50.760881, longitude=5.373113, routes=[]}
Stop with no routes: Stop{stopId='DELIJN-403792', name='Heers Sint-Barbarastraat', latitude=50.746907, longitude=5.305828, routes=[]}
Stop with no routes: Stop{stopId='DELIJN-403764', name='Heers Horpmaalweg', latitude=50.743631, longitude=5.31391, routes=[]}
Stop with no routes: Stop{stopId='DELIJN-403768', name='Mettekoven Kerk', latitude=50.780969, longitude=5.289469, routes=[]}
Stop with no routes: Stop{stopId='DELIJN-403761', name='Horpmaal Rauwstraat', latitude=50.754226, longitude=5.33328, routes=[]}
Stop with no routes: Stop{stopId='DELIJN-403778', name='Heers Paardskerkhof', latitude=50.75449, longitude=5.287388, routes=[]}
Stop with no routes: Stop{stopId='DELIJN-511538', name='Sint-Pieters Parkbegraafplaats', latitude=51.255854, longitude=3.194216, routes=[]}
Stop with no routes: Stop{stopId='STIB-0020307', name='3 - Rue des Colonies', latitude=50.846263, longitude=4.359026, routes=[]}
Stop with no routes: Stop{stopId='SNCB-S8893815', name='Waarschoot', latitude=51.15461, longitude=3.61535, routes=[]}
Stop with no routes: Stop{stopId='DELIJN-511542', name='Sint-Pieters Blauw Kruis', latitude=51.253952, longitude=3.2008, routes=[]}
Stop with no routes: Stop{stopId='SNCB-8881166_1', name='Jurbise', latitude=50.5305, longitude=3.91069, routes=[]}
Stop with no routes: Stop{stopId='SNCB-8881166_4', name='Jurbise', latitude=50.5305, longitude=3.91069, routes=[]}
Stop with no routes: Stop{stopId='SNCB-8881166_5', name='Jurbise', latitude=50.5305, longitude=3.91069, routes=[]}
Stop with no routes: Stop{stopId='SNCB-8881166_2', name='Jurbise', latitude=50.5305, longitude=3.91069, routes=[]}
Stop with no routes: Stop{stopId='SNCB-8881166_3', name='Jurbise', latitude=50.5305, longitude=3.91069, routes=[]}
Stop with no routes: Stop{stopId='DELIJN-535552', name='Armentières Le Bizet', latitude=50.705666, longitude=2.88417, routes=[]}
Stop with no routes: Stop{stopId='STIB-0440551', name='5 - Boulevard d'Anvers', latitude=50.857516, longitude=4.349877, routes=[]}
Stop with no routes: Stop{stopId='SNCB-8811460_4', name='Hoeilaart', latitude=50.76016, longitude=4.46741, routes=[]}
Stop with no routes: Stop{stopId='SNCB-8811460_1', name='Hoeilaart', latitude=50.76016, longitude=4.46741, routes=[]}
Stop with no routes: Stop{stopId='SNCB-S8893120', name='Gand-Dampoort', latitude=51.05637, longitude=3.74059, routes=[]}
